{"index": {"_index": "restaurants", "_id": "AA9wpuJRhkSHUePAiv3otA"}}
{"id": "AA9wpuJRhkSHUePAiv3otA", "name": "The Leroy House", "review_count": 168, "categories": [{"alias": "newamerican", "title": "American (New)"}, {"alias": "cocktailbars", "title": "Cocktail Bars"}], "rating": "4.5", "coordinates": {"latitude": 40.73063, "longitude": -74.00661}, "location": {"address1": "430 Hudson St", "address2": "", "address3": "", "city": "New York", "zip_code": "10014", "country": "US", "state": "NY", "display_address": ["430 Hudson St", "New York, NY 10014"]}, "phone": "+16465900640", "display_phone": "(646) 590-0640"}
{"index": {"_index": "restaurants", "_id": "J3NT61-AH5d5Gu5tFJhYSw"}}
{"id": "J3NT61-AH5d5Gu5tFJhYSw", "name": "The Cabin NYC", "review_count": 528, "categories": [{"alias": "newamerican", "title": "American (New)"}, {"alias": "cocktailbars", "title": "Cocktail Bars"}, {"alias": "breakfast_brunch", "title": "Breakfast & Brunch"}], "rating": "4", "coordinates": {"latitude": 40.72393, "longitude": -73.98383}, "location": {"address1": "205 E 4th St", "address2": null, "address3": "", "city": "New York", "zip_code": "10009", "country": "US", "state": "NY", "display_address": ["205 E 4th St", "New York, NY 10009"]}, "phone": "+12127770454", "display_phone": "(212) 777-0454"}
{"index": {"_index": "restaurants", "_id": "zX8IF7oCbw1HrNaPmOBy-g"}}
{"id": "zX8IF7oCbw1HrNaPmOBy-g", "name": "FERNS", "review_count": 198, "categories": [{"alias": "bars", "title": "Bars"}, {"alias": "newamerican", "title": "American (New)"}, {"alias": "breakfast_brunch", "title": "Breakfast & Brunch"}], "rating": "4.5", "coordinates": {"latitude": 40.72881, "longitude": -73.98403}, "location": {"address1": "166 1st Ave", "address2": "", "address3": null, "city": "New York", "zip_code": "10009", "country": "US", "state": "NY", "display_address": ["166 1st Ave", "New York, NY 10009"]}, "phone": "+16469985034", "display_phone": "(646) 998-5034"}
{"index": {"_index": "restaurants", "_id": "hdiuRS9sVZSMReZm4oV5SA"}}
{"id": "hdiuRS9sVZSMReZm4oV5SA", "name": "Da Andrea", "review_count": 1816, "categories": [{"alias": "italian", "title": "Italian"}, {"alias": "mediterranean", "title": "Mediterranean"}, {"alias": "breakfast_brunch", "title": "Breakfast & Brunch"}], "rating": "4.5", "coordinates": {"latitude": 40.736218, "longitude": -73.99597}, "location": {"address1": "35 W 13th St", "address2": "", "address3": "", "city": "New York", "zip_code": "10011", "country": "US", "state": "NY", "display_address": ["35 W 13th St", "New York, NY 10011"]}, "phone": "+12123671979", "display_phone": "(212) 367-1979"}
{"index": {"_index": "restaurants", "_id": "__EvomQ2tE1NtkWn32WEXg"}}
{"id": "__EvomQ2tE1NtkWn32WEXg", "name": "Au Cheval", "review_count": 732, "categories": [{"alias": "burgers", "title": "Burgers"}, {"alias": "newamerican", "title": "American (New)"}, {"alias": "cocktailbars", "title": "Cocktail Bars"}], "rating": "4.5", "coordinates": {"latitude": 40.7183878, "longitude": -74.0015522}, "location": {"address1": "33 Cortlandt Aly", "address2": "", "address3": null, "city": "New York", "zip_code": "10013", "country": "US", "state": "NY", "display_address": ["33 Cortlandt Aly", "New York, NY 10013"]}, "phone": "+16463502429", "display_phone": "(646) 350-2429"}
{"index": {"_index": "restaurants", "_id": "8wMJdpw2R_4VfS55itB_gQ"}}
{"id": "8wMJdpw2R_4VfS55itB_gQ", "name": "Sweetwater Restaurant", "review_count": 457, "categories": [{"alias": "newamerican", "title": "American (New)"}, {"alias": "bars", "title": "Bars"}], "rating": "4", "coordinates": {"latitude": 40.7184736, "longitude": -73.9600178}, "location": {"address1": "105 N 6th St", "address2": "", "address3": "", "city": "Brooklyn", "zip_code": "11249", "country": "US", "state": "NY", "display_address": ["105 N 6th St", "Brooklyn, NY 11249"]}, "phone": "+17189630608", "display_phone": "(718) 963-0608"}
{"index": {"_index": "restaurants", "_id": "Orbsfc3nI21mQ8cwSPahhg"}}
{"id": "Orbsfc3nI21mQ8cwSPahhg", "name": "The Four Horsemen", "review_count": 285, "categories": [{"alias": "wine_bars", "title": "Wine Bars"}, {"alias": "newamerican", "title": "American (New)"}], "rating": "4.5", "coordinates": {"latitude": 40.71305, "longitude": -73.95732}, "location": {"address1": "295 Grand St", "address2": "", "address3": "", "city": "Brooklyn", "zip_code": "11211", "country": "US", "state": "NY", "display_address": ["295 Grand St", "Brooklyn, NY 11211"]}, "phone": "+17185994900", "display_phone": "(718) 599-4900"}
{"index": {"_index": "restaurants", "_id": "mVN2G1c5bRtAsNlr2Tbx6Q"}}
{"id": "mVN2G1c5bRtAsNlr2Tbx6Q", "name": "White Oak Tavern", "review_count": 428, "categories": [{"alias": "newamerican", "title": "American (New)"}, {"alias": "whiskeybars", "title": "Whiskey Bars"}, {"alias": "cocktailbars", "title": "Cocktail Bars"}], "rating": "4", "coordinates": {"latitude": 40.73036, "longitude": -73.99462}, "location": {"address1": "21 Waverly Pl", "address2": "", "address3": "", "city": "New York", "zip_code": "10003", "country": "US", "state": "NY", "display_address": ["21 Waverly Pl", "New York, NY 10003"]}, "phone": "+12122602604", "display_phone": "(212) 260-2604"}
{"index": {"_index": "restaurants", "_id": "uoT2_Wrt1noD6kZOID7tUg"}}
{"id": "uoT2_Wrt1noD6kZOID7tUg", "name": "Jane Restaurant", "review_count": 3475, "categories": [{"alias": "breakfast_brunch", "title": "Breakfast & Brunch"}, {"alias": "newamerican", "title": "American (New)"}, {"alias": "bars", "title": "Bars"}], "rating": "4", "coordinates": {"latitude": 40.7273779, "longitude": -74.00025}, "location": {"address1": "100 W Houston St", "address2": "", "address3": "", "city": "New York", "zip_code": "10012", "country": "US", "state": "NY", "display_address": ["100 W Houston St", "New York, NY 10012"]}, "phone": "+12122547000", "display_phone": "(212) 254-7000"}
{"index": {"_index": "restaurants", "_id": "w4cFJhUpjGXqqWBd3BbY4w"}}
{"id": "w4cFJhUpjGXqqWBd3BbY4w", "name": "Freemans", "review_count": 2197, "categories": [{"alias": "breakfast_brunch", "title": "Breakfast & Brunch"}, {"alias": "lounges", "title": "Lounges"}, {"alias": "tradamerican", "title": "American (Traditional)"}], "rating": "4", "coordinates": {"latitude": 40.721988, "longitude": -73.992466}, "location": {"address1": "Freeman Alley", "address2": "", "address3": "", "city": "New York", "zip_code": "10002", "country": "US", "state": "NY", "display_address": ["Freeman Alley", "New York, NY 10002"]}, "phone": "+12124200012", "display_phone": "(212) 420-0012"}
{"index": {"_index": "restaurants", "_id": "m86CNmYThtzzWB3nPnrhbg"}}
{"id": "m86CNmYThtzzWB3nPnrhbg", "name": "Emily - West Village", "review_count": 926, "categories": [{"alias": "pizza", "title": "Pizza"}, {"alias": "burgers", "title": "Burgers"}], "rating": "4", "coordinates": {"latitude": 40.729375015649076, "longitude": -74.00386306706551}, "location": {"address1": "35 Downing St", "address2": "", "address3": null, "city": "New York", "zip_code": "10014", "country": "US", "state": "NY", "display_address": ["35 Downing St", "New York, NY 10014"]}, "phone": "+19179356434", "display_phone": "(917) 935-6434"}
{"index": {"_index": "restaurants", "_id": "-R5CBTnY10kdVNNv0lbHnA"}}
{"id": "-R5CBTnY10kdVNNv0lbHnA", "name": "The Mayfly", "review_count": 49, "categories": [{"alias": "tradamerican", "title": "American (Traditional)"}], "rating": "4.5", "coordinates": {"latitude": 40.72152, "longitude": -73.98462}, "location": {"address1": "269 E Houston St", "address2": "", "address3": null, "city": "New York", "zip_code": "10002", "country": "US", "state": "NY", "display_address": ["269 E Houston St", "New York, NY 10002"]}, "phone": "+16464498435", "display_phone": "(646) 449-8435"}
{"index": {"_index": "restaurants", "_id": "moaPtBNbQ5VNu2Z0ilCVGQ"}}
{"id": "moaPtBNbQ5VNu2Z0ilCVGQ", "name": "Walter's", "review_count": 613, "categories": [{"alias": "newamerican", "title": "American (New)"}, {"alias": "cocktailbars", "title": "Cocktail Bars"}], "rating": "4", "coordinates": {"latitude": 40.6894111633301, "longitude": -73.973258972168}, "location": {"address1": "166 DeKalb Ave", "address2": "", "address3": "", "city": "Brooklyn", "zip_code": "11217", "country": "US", "state": "NY", "display_address": ["166 DeKalb Ave", "Brooklyn, NY 11217"]}, "phone": "+17184887800", "display_phone": "(718) 488-7800"}
{"index": {"_index": "restaurants", "_id": "GpWXEpVyehmKP2WQsD_Y8g"}}
{"id": "GpWXEpVyehmKP2WQsD_Y8g", "name": "OTB", "review_count": 169, "categories": [{"alias": "newamerican", "title": "American (New)"}, {"alias": "cocktailbars", "title": "Cocktail Bars"}, {"alias": "gastropubs", "title": "Gastropubs"}], "rating": "4.5", "coordinates": {"latitude": 40.710484, "longitude": -73.963408}, "location": {"address1": "141 Broadway", "address2": "", "address3": "", "city": "Brooklyn", "zip_code": "11211", "country": "US", "state": "NY", "display_address": ["141 Broadway", "Brooklyn, NY 11211"]}, "phone": "+13477631481", "display_phone": "(347) 763-1481"}
{"index": {"_index": "restaurants", "_id": "c8wkoGg9UbF55k3Z74X0Qw"}}
{"id": "c8wkoGg9UbF55k3Z74X0Qw", "name": "Betty", "review_count": 21, "categories": [{"alias": "newamerican", "title": "American (New)"}, {"alias": "bars", "title": "Bars"}, {"alias": "venues", "title": "Venues & Event Spaces"}], "rating": "5", "coordinates": {"latitude": 40.71367, "longitude": -73.98785}, "location": {"address1": "193 Henry St", "address2": null, "address3": "", "city": "New York", "zip_code": "10002", "country": "US", "state": "NY", "display_address": ["193 Henry St", "New York, NY 10002"]}, "phone": "+16465565081", "display_phone": "(646) 556-5081"}
{"index": {"_index": "restaurants", "_id": "9AXTJkwXdWaJaQkCjpj6mA"}}
{"id": "9AXTJkwXdWaJaQkCjpj6mA", "name": "Sunday in Brooklyn", "review_count": 1210, "categories": [{"alias": "newamerican", "title": "American (New)"}, {"alias": "breakfast_brunch", "title": "Breakfast & Brunch"}, {"alias": "cocktailbars", "title": "Cocktail Bars"}], "rating": "4", "coordinates": {"latitude": 40.714181240175115, "longitude": -73.96532809508915}, "location": {"address1": "348 Wythe Ave", "address2": "", "address3": null, "city": "Brooklyn", "zip_code": "11249", "country": "US", "state": "NY", "display_address": ["348 Wythe Ave", "Brooklyn, NY 11249"]}, "phone": "+13472226722", "display_phone": "(347) 222-6722"}
{"index": {"_index": "restaurants", "_id": "xMUZfoyzyJoTfZxrEZus4Q"}}
{"id": "xMUZfoyzyJoTfZxrEZus4Q", "name": "Mom's Kitchen & Bar", "review_count": 1610, "categories": [{"alias": "comfortfood", "title": "Comfort Food"}, {"alias": "breakfast_brunch", "title": "Breakfast & Brunch"}, {"alias": "bars", "title": "Bars"}], "rating": "4.5", "coordinates": {"latitude": 40.76247, "longitude": -73.9901}, "location": {"address1": "701 9th Ave", "address2": null, "address3": "", "city": "New York", "zip_code": "10019", "country": "US", "state": "NY", "display_address": ["701 9th Ave", "New York, NY 10019"]}, "phone": "+16466570080", "display_phone": "(646) 657-0080"}
{"index": {"_index": "restaurants", "_id": "TnX-mUXtxIO9lUxMnn9UJQ"}}
{"id": "TnX-mUXtxIO9lUxMnn9UJQ", "name": "Old Fashion cafe", "review_count": 10, "categories": [{"alias": "cafes", "title": "Cafes"}, {"alias": "burgers", "title": "Burgers"}, {"alias": "salad", "title": "Salad"}], "rating": "4.5", "coordinates": {"latitude": 40.72575102449529, "longitude": -74.0017575}, "location": {"address1": "110 Thompson St", "address2": "", "address3": "", "city": "New York", "zip_code": "10012", "country": "US", "state": "NY", "display_address": ["110 Thompson St", "New York, NY 10012"]}, "phone": "+19173303652", "display_phone": "(917) 330-3652"}
{"index": {"_index": "restaurants", "_id": "RfxOtJ4SQmEeVX_XjFLWUQ"}}
{"id": "RfxOtJ4SQmEeVX_XjFLWUQ", "name": "Otis", "review_count": 485, "categories": [{"alias": "newamerican", "title": "American (New)"}, {"alias": "cocktailbars", "title": "Cocktail Bars"}], "rating": "5", "coordinates": {"latitude": 40.706011, "longitude": -73.932598}, "location": {"address1": "18 Harrison Pl", "address2": null, "address3": "", "city": "Brooklyn", "zip_code": "11206", "country": "US", "state": "NY", "display_address": ["18 Harrison Pl", "Brooklyn, NY 11206"]}, "phone": "+16468860601", "display_phone": "(646) 886-0601"}
{"index": {"_index": "restaurants", "_id": "Cz6It2NB_QBXCjnlsWGZSA"}}
{"id": "Cz6It2NB_QBXCjnlsWGZSA", "name": "Boulton & Watt", "review_count": 716, "categories": [{"alias": "newamerican", "title": "American (New)"}, {"alias": "gastropubs", "title": "Gastropubs"}, {"alias": "comfortfood", "title": "Comfort Food"}], "rating": "4", "coordinates": {"latitude": 40.722553, "longitude": -73.986429}, "location": {"address1": "5 Ave A", "address2": "", "address3": "", "city": "New York", "zip_code": "10009", "country": "US", "state": "NY", "display_address": ["5 Ave A", "New York, NY 10009"]}, "phone": "+16464906004", "display_phone": "(646) 490-6004"}
{"index": {"_index": "restaurants", "_id": "Me4TxTbPPQZQopW1wOGx5g"}}
{"id": "Me4TxTbPPQZQopW1wOGx5g", "name": "Jack's Wife Freda", "review_count": 2288, "categories": [{"alias": "breakfast_brunch", "title": "Breakfast & Brunch"}, {"alias": "mediterranean", "title": "Mediterranean"}, {"alias": "newamerican", "title": "American (New)"}], "rating": "4", "coordinates": {"latitude": 40.7221323, "longitude": -73.9975402}, "location": {"address1": "226 Lafayette St", "address2": "", "address3": "", "city": "New York", "zip_code": "10012", "country": "US", "state": "NY", "display_address": ["226 Lafayette St", "New York, NY 10012"]}, "phone": "+12125108550", "display_phone": "(212) 510-8550"}
{"index": {"_index": "restaurants", "_id": "QyB52nUrwJRY0ipuwcfR_A"}}
{"id": "QyB52nUrwJRY0ipuwcfR_A", "name": "The HiHi Room", "review_count": 69, "categories": [{"alias": "burgers", "title": "Burgers"}, {"alias": "newamerican", "title": "American (New)"}, {"alias": "cocktailbars", "title": "Cocktail Bars"}], "rating": "4.5", "coordinates": {"latitude": 40.6871, "longitude": -73.99036}, "location": {"address1": "138 Smith St", "address2": "", "address3": null, "city": "New York", "zip_code": "11201", "country": "US", "state": "NY", "display_address": ["138 Smith St", "New York, NY 11201"]}, "phone": "+17185763352", "display_phone": "(718) 576-3352"}
{"index": {"_index": "restaurants", "_id": "h9nuvIu8TyrQcYy8J1AOxg"}}
{"id": "h9nuvIu8TyrQcYy8J1AOxg", "name": "The Ellington", "review_count": 90, "categories": [{"alias": "tradamerican", "title": "American (Traditional)"}, {"alias": "bars", "title": "Bars"}, {"alias": "venues", "title": "Venues & Event Spaces"}], "rating": "4.5", "coordinates": {"latitude": 40.80087, "longitude": -73.96823}, "location": {"address1": "2745 Broadway", "address2": null, "address3": "", "city": "New York", "zip_code": "10025", "country": "US", "state": "NY", "display_address": ["2745 Broadway", "New York, NY 10025"]}, "phone": "+12122813011", "display_phone": "(212) 281-3011"}
{"index": {"_index": "restaurants", "_id": "8bIXIStb1SVu1sXYfcMH5g"}}
{"id": "8bIXIStb1SVu1sXYfcMH5g", "name": "Ruby's Cafe", "review_count": 323, "categories": [{"alias": "australian", "title": "Australian"}, {"alias": "breakfast_brunch", "title": "Breakfast & Brunch"}, {"alias": "sandwiches", "title": "Sandwiches"}], "rating": "4.5", "coordinates": {"latitude": 40.730932, "longitude": -73.988061}, "location": {"address1": "198 E 11th St", "address2": "", "address3": null, "city": "New York", "zip_code": "10003", "country": "US", "state": "NY", "display_address": ["198 E 11th St", "New York, NY 10003"]}, "phone": "+16469984265", "display_phone": "(646) 998-4265"}
{"index": {"_index": "restaurants", "_id": "C-8mGN7lt5rIraO5n-15ug"}}
{"id": "C-8mGN7lt5rIraO5n-15ug", "name": "The Smith", "review_count": 3069, "categories": [{"alias": "newamerican", "title": "American (New)"}, {"alias": "breakfast_brunch", "title": "Breakfast & Brunch"}, {"alias": "cocktailbars", "title": "Cocktail Bars"}], "rating": "4", "coordinates": {"latitude": 40.755165, "longitude": -73.967868}, "location": {"address1": "956 2nd Ave", "address2": "", "address3": "", "city": "New York", "zip_code": "10022", "country": "US", "state": "NY", "display_address": ["956 2nd Ave", "New York, NY 10022"]}, "phone": "+12126442700", "display_phone": "(212) 644-2700"}
{"index": {"_index": "restaurants", "_id": "cCesIqo-LQt0cRlZAnrAZQ"}}
{"id": "cCesIqo-LQt0cRlZAnrAZQ", "name": "Friedman's", "review_count": 2811, "categories": [{"alias": "newamerican", "title": "American (New)"}, {"alias": "breakfast_brunch", "title": "Breakfast & Brunch"}, {"alias": "wine_bars", "title": "Wine Bars"}], "rating": "4", "coordinates": {"latitude": 40.74839, "longitude": -73.99062}, "location": {"address1": "132 W 31st St", "address2": "", "address3": "", "city": "New York", "zip_code": "10001", "country": "US", "state": "NY", "display_address": ["132 W 31st St", "New York, NY 10001"]}, "phone": "+12129719400", "display_phone": "(212) 971-9400"}
{"index": {"_index": "restaurants", "_id": "XpYm_l-zKI3Rl4E8WODIDA"}}
{"id": "XpYm_l-zKI3Rl4E8WODIDA", "name": "The Levee", "review_count": 402, "categories": [{"alias": "tradamerican", "title": "American (Traditional)"}, {"alias": "bars", "title": "Bars"}], "rating": "4", "coordinates": {"latitude": 40.7163303847776, "longitude": -73.9617204666138}, "location": {"address1": "212 Berry St", "address2": "", "address3": "", "city": "Brooklyn", "zip_code": "11211", "country": "US", "state": "NY", "display_address": ["212 Berry St", "Brooklyn, NY 11211"]}, "phone": "+17182188787", "display_phone": "(718) 218-8787"}
{"index": {"_index": "restaurants", "_id": "OQbccovdHgjenH-sJIbFPw"}}
{"id": "OQbccovdHgjenH-sJIbFPw", "name": "Clover Hill", "review_count": 33, "categories": [{"alias": "newamerican", "title": "American (New)"}], "rating": "4.5", "coordinates": {"latitude": 40.69316, "longitude": -73.99871}, "location": {"address1": "20 Columbia Pl", "address2": null, "address3": "", "city": "Brooklyn", "zip_code": "11201", "country": "US", "state": "NY", "display_address": ["20 Columbia Pl", "Brooklyn, NY 11201"]}, "phone": "+13474576850", "display_phone": "(347) 457-6850"}
{"index": {"_index": "restaurants", "_id": "nsnPyoDYc_fYCxZfgKdzmw"}}
{"id": "nsnPyoDYc_fYCxZfgKdzmw", "name": "82 Stanton", "review_count": 29, "categories": [{"alias": "bars", "title": "Bars"}, {"alias": "newamerican", "title": "American (New)"}, {"alias": "burgers", "title": "Burgers"}], "rating": "4.5", "coordinates": {"latitude": 40.721701, "longitude": -73.988817}, "location": {"address1": "82 Stanton St", "address2": "", "address3": null, "city": "New York", "zip_code": "10002", "country": "US", "state": "NY", "display_address": ["82 Stanton St", "New York, NY 10002"]}, "phone": "+19172617595", "display_phone": "(917) 261-7595"}
{"index": {"_index": "restaurants", "_id": "NDIrifAl6K-RrnZ2D3ZGbw"}}
{"id": "NDIrifAl6K-RrnZ2D3ZGbw", "name": "Emily", "review_count": 905, "categories": [{"alias": "tradamerican", "title": "American (Traditional)"}], "rating": "4", "coordinates": {"latitude": 40.68351, "longitude": -73.96643}, "location": {"address1": "919 Fulton St", "address2": "", "address3": null, "city": "Brooklyn", "zip_code": "11238", "country": "US", "state": "NY", "display_address": ["919 Fulton St", "Brooklyn, NY 11238"]}, "phone": "+13478449588", "display_phone": "(347) 844-9588"}
{"index": {"_index": "restaurants", "_id": "MfbVI5reXLIIs8Cc2HwgQw"}}
{"id": "MfbVI5reXLIIs8Cc2HwgQw", "name": "Breakroom", "review_count": 1680, "categories": [{"alias": "burgers", "title": "Burgers"}, {"alias": "tacos", "title": "Tacos"}, {"alias": "hotdog", "title": "Hot Dogs"}], "rating": "4.5", "coordinates": {"latitude": 40.7166907225542, "longitude": -73.9999440120647}, "location": {"address1": "83 Baxter St", "address2": "", "address3": "", "city": "New York", "zip_code": "10013", "country": "US", "state": "NY", "display_address": ["83 Baxter St", "New York, NY 10013"]}, "phone": "+12122272802", "display_phone": "(212) 227-2802"}
{"index": {"_index": "restaurants", "_id": "zRXMvxUX_rOliKZPpkWi_g"}}
{"id": "zRXMvxUX_rOliKZPpkWi_g", "name": "Valerie", "review_count": 600, "categories": [{"alias": "newamerican", "title": "American (New)"}, {"alias": "cocktailbars", "title": "Cocktail Bars"}], "rating": "4.5", "coordinates": {"latitude": 40.756326, "longitude": -73.981117}, "location": {"address1": "45 W 45th St between 5th & 6th Ave", "address2": "", "address3": null, "city": "New York", "zip_code": "10036", "country": "US", "state": "NY", "display_address": ["45 W 45th St between 5th & 6th Ave", "New York, NY 10036"]}, "phone": "+12123024545", "display_phone": "(212) 302-4545"}
{"index": {"_index": "restaurants", "_id": "LHxZgTddXIp_S1sL3nNG9w"}}
{"id": "LHxZgTddXIp_S1sL3nNG9w", "name": "Park Avenue Tavern", "review_count": 942, "categories": [{"alias": "tradamerican", "title": "American (Traditional)"}, {"alias": "cocktailbars", "title": "Cocktail Bars"}, {"alias": "burgers", "title": "Burgers"}], "rating": "4", "coordinates": {"latitude": 40.75031, "longitude": -73.9783999}, "location": {"address1": "99 Park Ave", "address2": "", "address3": "", "city": "New York", "zip_code": "10016", "country": "US", "state": "NY", "display_address": ["99 Park Ave", "New York, NY 10016"]}, "phone": "+12128674484", "display_phone": "(212) 867-4484"}
{"index": {"_index": "restaurants", "_id": "fVbUVAiLiGgLA_nxBFxyww"}}
{"id": "fVbUVAiLiGgLA_nxBFxyww", "name": "Thursday Kitchen", "review_count": 1693, "categories": [{"alias": "korean", "title": "Korean"}, {"alias": "newamerican", "title": "American (New)"}, {"alias": "tapasmallplates", "title": "Tapas/Small Plates"}], "rating": "4.5", "coordinates": {"latitude": 40.72761, "longitude": -73.98373}, "location": {"address1": "424 E 9th St", "address2": null, "address3": "", "city": "New York", "zip_code": "10009", "country": "US", "state": "NY", "display_address": ["424 E 9th St", "New York, NY 10009"]}, "phone": "", "display_phone": ""}
{"index": {"_index": "restaurants", "_id": "BQRfaq0U75B5EEblBZ2Aqg"}}
{"id": "BQRfaq0U75B5EEblBZ2Aqg", "name": "Bacall's", "review_count": 399, "categories": [{"alias": "newamerican", "title": "American (New)"}, {"alias": "bars", "title": "Bars"}], "rating": "4", "coordinates": {"latitude": 40.7576, "longitude": -73.98693}, "location": {"address1": "220 West 44th St", "address2": null, "address3": "", "city": "New York", "zip_code": "10036", "country": "US", "state": "NY", "display_address": ["220 West 44th St", "New York, NY 10036"]}, "phone": "+12129442474", "display_phone": "(212) 944-2474"}
{"index": {"_index": "restaurants", "_id": "hGo9KArKThuOKxNbwmNpoA"}}
{"id": "hGo9KArKThuOKxNbwmNpoA", "name": "Ruby's Cafe", "review_count": 1545, "categories": [{"alias": "burgers", "title": "Burgers"}, {"alias": "coffee", "title": "Coffee & Tea"}, {"alias": "breakfast_brunch", "title": "Breakfast & Brunch"}], "rating": "4", "coordinates": {"latitude": 40.7223288, "longitude": -73.996326}, "location": {"address1": "219 Mulberry St", "address2": null, "address3": "", "city": "New York", "zip_code": "10012", "country": "US", "state": "NY", "display_address": ["219 Mulberry St", "New York, NY 10012"]}, "phone": "+12129255755", "display_phone": "(212) 925-5755"}
{"index": {"_index": "restaurants", "_id": "ANnbbwv_ZTFPcNdzSMUiZw"}}
{"id": "ANnbbwv_ZTFPcNdzSMUiZw", "name": "Nura", "review_count": 90, "categories": [{"alias": "newamerican", "title": "American (New)"}], "rating": "4.5", "coordinates": {"latitude": 40.72467, "longitude": -73.95371}, "location": {"address1": "46 Norman Ave", "address2": "", "address3": null, "city": "Brooklyn", "zip_code": "11222", "country": "US", "state": "NY", "display_address": ["46 Norman Ave", "Brooklyn, NY 11222"]}, "phone": "+13476721222", "display_phone": "(347) 672-1222"}
{"index": {"_index": "restaurants", "_id": "xt4sa64WOrpJvZBDPNPNYg"}}
{"id": "xt4sa64WOrpJvZBDPNPNYg", "name": "Jacob's Pickles", "review_count": 5184, "categories": [{"alias": "comfortfood", "title": "Comfort Food"}, {"alias": "southern", "title": "Southern"}, {"alias": "tradamerican", "title": "American (Traditional)"}], "rating": "4", "coordinates": {"latitude": 40.7866504411994, "longitude": -73.9755284786224}, "location": {"address1": "509 Amsterdam Ave", "address2": "", "address3": "", "city": "New York", "zip_code": "10024", "country": "US", "state": "NY", "display_address": ["509 Amsterdam Ave", "New York, NY 10024"]}, "phone": "+12124705566", "display_phone": "(212) 470-5566"}
{"index": {"_index": "restaurants", "_id": "fuSjpC1qw3fLih5SYUoOvg"}}
{"id": "fuSjpC1qw3fLih5SYUoOvg", "name": "Jack's Wife Freda", "review_count": 45, "categories": [{"alias": "mediterranean", "title": "Mediterranean"}, {"alias": "newamerican", "title": "American (New)"}, {"alias": "breakfast_brunch", "title": "Breakfast & Brunch"}], "rating": "4", "coordinates": {"latitude": 40.71707, "longitude": -73.96322}, "location": {"address1": "258 Wythe Ave", "address2": null, "address3": "", "city": "New York", "zip_code": "11249", "country": "US", "state": "NY", "display_address": ["258 Wythe Ave", "New York, NY 11249"]}, "phone": "+17183558280", "display_phone": "(718) 355-8280"}
{"index": {"_index": "restaurants", "_id": "lhEzTykkqFz92Vq2uILtyw"}}
{"id": "lhEzTykkqFz92Vq2uILtyw", "name": "The Wren", "review_count": 609, "categories": [{"alias": "bars", "title": "Bars"}, {"alias": "breakfast_brunch", "title": "Breakfast & Brunch"}, {"alias": "venues", "title": "Venues & Event Spaces"}], "rating": "4", "coordinates": {"latitude": 40.7263350655, "longitude": -73.9920476876}, "location": {"address1": "344 Bowery", "address2": "", "address3": "", "city": "New York", "zip_code": "10012", "country": "US", "state": "NY", "display_address": ["344 Bowery", "New York, NY 10012"]}, "phone": "+12123880148", "display_phone": "(212) 388-0148"}
{"index": {"_index": "restaurants", "_id": "-KKgqE2g4c1cH4YmmDR9CQ"}}
{"id": "-KKgqE2g4c1cH4YmmDR9CQ", "name": "Bernie's", "review_count": 108, "categories": [{"alias": "newamerican", "title": "American (New)"}, {"alias": "beerbar", "title": "Beer Bar"}, {"alias": "wine_bars", "title": "Wine Bars"}], "rating": "4.5", "coordinates": {"latitude": 40.721936, "longitude": -73.950597}, "location": {"address1": "332 Driggs Ave", "address2": "", "address3": null, "city": "Brooklyn", "zip_code": "11222", "country": "US", "state": "NY", "display_address": ["332 Driggs Ave", "Brooklyn, NY 11222"]}, "phone": "+13475296400", "display_phone": "(347) 529-6400"}
{"index": {"_index": "restaurants", "_id": "VCqNjupCWZ5INzOcyBMJSg"}}
{"id": "VCqNjupCWZ5INzOcyBMJSg", "name": "The Grey Dog - Union Square", "review_count": 1171, "categories": [{"alias": "coffee", "title": "Coffee & Tea"}, {"alias": "breakfast_brunch", "title": "Breakfast & Brunch"}, {"alias": "tradamerican", "title": "American (Traditional)"}], "rating": "4", "coordinates": {"latitude": 40.733828, "longitude": -73.993052}, "location": {"address1": "90 University Pl", "address2": "", "address3": "", "city": "New York", "zip_code": "10003", "country": "US", "state": "NY", "display_address": ["90 University Pl", "New York, NY 10003"]}, "phone": "+12129661060", "display_phone": "(212) 966-1060"}
{"index": {"_index": "restaurants", "_id": "q11TljTQd33XCWlVoPyRqg"}}
{"id": "q11TljTQd33XCWlVoPyRqg", "name": "The Osprey", "review_count": 287, "categories": [{"alias": "newamerican", "title": "American (New)"}], "rating": "4", "coordinates": {"latitude": 40.702241, "longitude": -73.995539}, "location": {"address1": "60 Furman St", "address2": "", "address3": null, "city": "Brooklyn", "zip_code": "11201", "country": "US", "state": "NY", "display_address": ["60 Furman St", "Brooklyn, NY 11201"]}, "phone": "+13476962505", "display_phone": "(347) 696-2505"}
{"index": {"_index": "restaurants", "_id": "7Bb_IDWV_zJqpBjAvxuBIA"}}
{"id": "7Bb_IDWV_zJqpBjAvxuBIA", "name": "Cooper's Craft & Cocktails", "review_count": 488, "categories": [{"alias": "bars", "title": "Bars"}, {"alias": "gastropubs", "title": "Gastropubs"}, {"alias": "tradamerican", "title": "American (Traditional)"}], "rating": "4", "coordinates": {"latitude": 40.72704, "longitude": -73.9892}, "location": {"address1": "87 2nd Ave", "address2": "", "address3": "", "city": "New York", "zip_code": "10003", "country": "US", "state": "NY", "display_address": ["87 2nd Ave", "New York, NY 10003"]}, "phone": "+16466062384", "display_phone": "(646) 606-2384"}
{"index": {"_index": "restaurants", "_id": "txSykTj5nbwmpiVNoK_Dyg"}}
{"id": "txSykTj5nbwmpiVNoK_Dyg", "name": "Blue Ribbon Brasserie - SoHo", "review_count": 995, "categories": [{"alias": "tradamerican", "title": "American (Traditional)"}, {"alias": "cocktailbars", "title": "Cocktail Bars"}, {"alias": "desserts", "title": "Desserts"}], "rating": "4.5", "coordinates": {"latitude": 40.725456, "longitude": -74.003027}, "location": {"address1": "97 Sullivan St", "address2": "", "address3": "", "city": "New York", "zip_code": "10012", "country": "US", "state": "NY", "display_address": ["97 Sullivan St", "New York, NY 10012"]}, "phone": "+12122740404", "display_phone": "(212) 274-0404"}
{"index": {"_index": "restaurants", "_id": "HdYmIA2jRBbKnU1mGJ9a3Q"}}
{"id": "HdYmIA2jRBbKnU1mGJ9a3Q", "name": "The Quarter Brooklyn", "review_count": 264, "categories": [{"alias": "newamerican", "title": "American (New)"}, {"alias": "mediterranean", "title": "Mediterranean"}, {"alias": "greek", "title": "Greek"}], "rating": "4", "coordinates": {"latitude": 40.6874192552749, "longitude": -73.9748689904809}, "location": {"address1": "87 Lafayette Ave", "address2": "", "address3": "", "city": "Brooklyn", "zip_code": "11217", "country": "US", "state": "NY", "display_address": ["87 Lafayette Ave", "Brooklyn, NY 11217"]}, "phone": "+13479874012", "display_phone": "(347) 987-4012"}
{"index": {"_index": "restaurants", "_id": "IOHaEgK1zDvUvB3SfKuGCw"}}
{"id": "IOHaEgK1zDvUvB3SfKuGCw", "name": "Parker & Quinn", "review_count": 1593, "categories": [{"alias": "newamerican", "title": "American (New)"}, {"alias": "bars", "title": "Bars"}, {"alias": "breakfast_brunch", "title": "Breakfast & Brunch"}], "rating": "4", "coordinates": {"latitude": 40.752586217581296, "longitude": -73.9850713153442}, "location": {"address1": "64 W 39th St", "address2": "", "address3": "", "city": "New York", "zip_code": "10018", "country": "US", "state": "NY", "display_address": ["64 W 39th St", "New York, NY 10018"]}, "phone": "+12127290277", "display_phone": "(212) 729-0277"}
{"index": {"_index": "restaurants", "_id": "mWS4umRg2AyykyAClMrIRw"}}
{"id": "mWS4umRg2AyykyAClMrIRw", "name": "The Penrose", "review_count": 1417, "categories": [{"alias": "newamerican", "title": "American (New)"}, {"alias": "bars", "title": "Bars"}, {"alias": "breakfast_brunch", "title": "Breakfast & Brunch"}], "rating": "4", "coordinates": {"latitude": 40.775427, "longitude": -73.953115}, "location": {"address1": "1590 2nd Ave", "address2": "", "address3": "", "city": "New York", "zip_code": "10028", "country": "US", "state": "NY", "display_address": ["1590 2nd Ave", "New York, NY 10028"]}, "phone": "+12122032751", "display_phone": "(212) 203-2751"}
{"index": {"_index": "restaurants", "_id": "xkvv0n7jbl4Ra3Vm_jfxaA"}}
{"id": "xkvv0n7jbl4Ra3Vm_jfxaA", "name": "Upland", "review_count": 1183, "categories": [{"alias": "newamerican", "title": "American (New)"}, {"alias": "burgers", "title": "Burgers"}], "rating": "4", "coordinates": {"latitude": 40.7418912, "longitude": -73.9846396}, "location": {"address1": "345 Park Ave S", "address2": "", "address3": "", "city": "New York", "zip_code": "10010", "country": "US", "state": "NY", "display_address": ["345 Park Ave S", "New York, NY 10010"]}, "phone": "+12126861006", "display_phone": "(212) 686-1006"}
{"index": {"_index": "restaurants", "_id": "w9I5sGHkwOyLe1yFQ0XBeg"}}
{"id": "w9I5sGHkwOyLe1yFQ0XBeg", "name": "Silver Light Tavern", "review_count": 100, "categories": [{"alias": "breakfast_brunch", "title": "Breakfast & Brunch"}, {"alias": "cocktailbars", "title": "Cocktail Bars"}, {"alias": "newamerican", "title": "American (New)"}], "rating": "5", "coordinates": {"latitude": 40.71747, "longitude": -73.95005}, "location": {"address1": "689 Lorimer St", "address2": null, "address3": "", "city": "Brooklyn", "zip_code": "11211", "country": "US", "state": "NY", "display_address": ["689 Lorimer St", "Brooklyn, NY 11211"]}, "phone": "+17189630384", "display_phone": "(718) 963-0384"}
{"index": {"_index": "restaurants", "_id": "lynQoI3w_pzYfHGeuUU-Qg"}}
{"id": "lynQoI3w_pzYfHGeuUU-Qg", "name": "Shu Jiao Fu Zhou", "review_count": 1175, "categories": [{"alias": "chinese", "title": "Chinese"}], "rating": "4.5", "coordinates": {"latitude": 40.7174109, "longitude": -73.9920876}, "location": {"address1": "295 Grand St", "address2": null, "address3": null, "city": "New York", "zip_code": "10002", "country": "US", "state": "NY", "display_address": ["295 Grand St", "New York, NY 10002"]}, "phone": "+12126252532", "display_phone": "(212) 625-2532"}
{"index": {"_index": "restaurants", "_id": "0CjK3esfpFcxIopebzjFxA"}}
{"id": "0CjK3esfpFcxIopebzjFxA", "name": "Joe's Shanghai", "review_count": 7048, "categories": [{"alias": "shanghainese", "title": "Shanghainese"}, {"alias": "seafood", "title": "Seafood"}, {"alias": "noodles", "title": "Noodles"}], "rating": "4", "coordinates": {"latitude": 40.7156608, "longitude": -73.9967012}, "location": {"address1": "46 Bowery St", "address2": "", "address3": "", "city": "New York", "zip_code": "10013", "country": "US", "state": "NY", "display_address": ["46 Bowery St", "New York, NY 10013"]}, "phone": "+12122338888", "display_phone": "(212) 233-8888"}
{"index": {"_index": "restaurants", "_id": "X8ZS-dgiMIJvhwf9SaDnjw"}}
{"id": "X8ZS-dgiMIJvhwf9SaDnjw", "name": "Wah Fung No 1", "review_count": 1969, "categories": [{"alias": "hotdogs", "title": "Fast Food"}, {"alias": "cantonese", "title": "Cantonese"}], "rating": "4.5", "coordinates": {"latitude": 40.71735, "longitude": -73.99457}, "location": {"address1": "79 Chrystie St", "address2": "", "address3": "", "city": "New York", "zip_code": "10002", "country": "US", "state": "NY", "display_address": ["79 Chrystie St", "New York, NY 10002"]}, "phone": "+12129255175", "display_phone": "(212) 925-5175"}
{"index": {"_index": "restaurants", "_id": "0dDCDQz7DrKkSvu9h2hcQw"}}
{"id": "0dDCDQz7DrKkSvu9h2hcQw", "name": "Chow House", "review_count": 579, "categories": [{"alias": "szechuan", "title": "Szechuan"}, {"alias": "noodles", "title": "Noodles"}, {"alias": "soup", "title": "Soup"}], "rating": "4.5", "coordinates": {"latitude": 40.72915, "longitude": -74.00072}, "location": {"address1": "181 Bleecker St", "address2": null, "address3": "", "city": "New York", "zip_code": "10012", "country": "US", "state": "NY", "display_address": ["181 Bleecker St", "New York, NY 10012"]}, "phone": "+12128371021", "display_phone": "(212) 837-1021"}
{"index": {"_index": "restaurants", "_id": "4DInnPhOyvXFbYpUdO0SMQ"}}
{"id": "4DInnPhOyvXFbYpUdO0SMQ", "name": "Antidote", "review_count": 301, "categories": [{"alias": "cocktailbars", "title": "Cocktail Bars"}, {"alias": "dimsum", "title": "Dim Sum"}, {"alias": "szechuan", "title": "Szechuan"}], "rating": "4.5", "coordinates": {"latitude": 40.714253413118925, "longitude": -73.96544806659222}, "location": {"address1": "66 S 2nd St", "address2": "", "address3": null, "city": "Brooklyn", "zip_code": "11249", "country": "US", "state": "NY", "display_address": ["66 S 2nd St", "Brooklyn, NY 11249"]}, "phone": "+17187822585", "display_phone": "(718) 782-2585"}
{"index": {"_index": "restaurants", "_id": "XsXLVWr1UZWVhKThNvNiaA"}}
{"id": "XsXLVWr1UZWVhKThNvNiaA", "name": "Blue Willow \u591c\u6765\u6e58", "review_count": 798, "categories": [{"alias": "szechuan", "title": "Szechuan"}], "rating": "4.5", "coordinates": {"latitude": 40.76292, "longitude": -73.976546}, "location": {"address1": "40 W 56th St", "address2": null, "address3": "", "city": "New York", "zip_code": "10019", "country": "US", "state": "NY", "display_address": ["40 W 56th St", "New York, NY 10019"]}, "phone": "+12122132299", "display_phone": "(212) 213-2299"}
{"index": {"_index": "restaurants", "_id": "U2aUFZARLeSMf4RQIxjuTw"}}
{"id": "U2aUFZARLeSMf4RQIxjuTw", "name": "Lucky House Kitchen", "review_count": 125, "categories": [{"alias": "chinese", "title": "Chinese"}], "rating": "4.5", "coordinates": {"latitude": 40.6838402152061, "longitude": -73.9351565390825}, "location": {"address1": "343 Lewis Ave", "address2": "", "address3": "", "city": "Brooklyn", "zip_code": "11233", "country": "US", "state": "NY", "display_address": ["343 Lewis Ave", "Brooklyn, NY 11233"]}, "phone": "+17184432298", "display_phone": "(718) 443-2298"}
{"index": {"_index": "restaurants", "_id": "wfhMIiMh2A2psCGONOVSlg"}}
{"id": "wfhMIiMh2A2psCGONOVSlg", "name": "Han Dynasty", "review_count": 1347, "categories": [{"alias": "szechuan", "title": "Szechuan"}, {"alias": "noodles", "title": "Noodles"}, {"alias": "beerbar", "title": "Beer Bar"}], "rating": "4", "coordinates": {"latitude": 40.732072, "longitude": -73.988074}, "location": {"address1": "90 3rd Ave", "address2": "", "address3": "", "city": "New York", "zip_code": "10003", "country": "US", "state": "NY", "display_address": ["90 3rd Ave", "New York, NY 10003"]}, "phone": "+12123908685", "display_phone": "(212) 390-8685"}
{"index": {"_index": "restaurants", "_id": "jc7lVTvmYMIK5RNpENtS6w"}}
{"id": "jc7lVTvmYMIK5RNpENtS6w", "name": "Szechuan Mountain House", "review_count": 588, "categories": [{"alias": "szechuan", "title": "Szechuan"}], "rating": "4.5", "coordinates": {"latitude": 40.72911, "longitude": -73.98858}, "location": {"address1": "23 St Marks Pl", "address2": "", "address3": null, "city": "New York", "zip_code": "10003", "country": "US", "state": "NY", "display_address": ["23 St Marks Pl", "New York, NY 10003"]}, "phone": "+19173883866", "display_phone": "(917) 388-3866"}
{"index": {"_index": "restaurants", "_id": "gDCK63W5_8-tdCCWr92rbw"}}
{"id": "gDCK63W5_8-tdCCWr92rbw", "name": "Shan", "review_count": 54, "categories": [{"alias": "cocktailbars", "title": "Cocktail Bars"}, {"alias": "szechuan", "title": "Szechuan"}, {"alias": "noodles", "title": "Noodles"}], "rating": "4.5", "coordinates": {"latitude": 40.68524, "longitude": -73.99133}, "location": {"address1": "191 Smith St", "address2": null, "address3": "", "city": "Brooklyn", "zip_code": "11201", "country": "US", "state": "NY", "display_address": ["191 Smith St", "Brooklyn, NY 11201"]}, "phone": "+13472944660", "display_phone": "(347) 294-4660"}
{"index": {"_index": "restaurants", "_id": "xCHApgtkLpEyh0lz-uhZvg"}}
{"id": "xCHApgtkLpEyh0lz-uhZvg", "name": "Szechuan Garden", "review_count": 374, "categories": [{"alias": "szechuan", "title": "Szechuan"}, {"alias": "dimsum", "title": "Dim Sum"}, {"alias": "seafood", "title": "Seafood"}], "rating": "4", "coordinates": {"latitude": 40.80053, "longitude": -73.967586}, "location": {"address1": "239 W 105th St", "address2": "", "address3": "", "city": "New York", "zip_code": "10025", "country": "US", "state": "NY", "display_address": ["239 W 105th St", "New York, NY 10025"]}, "phone": "+12128658808", "display_phone": "(212) 865-8808"}
{"index": {"_index": "restaurants", "_id": "4FD0TAxe70nb3ngk3sXF9Q"}}
{"id": "4FD0TAxe70nb3ngk3sXF9Q", "name": "Uluh", "review_count": 791, "categories": [{"alias": "tea", "title": "Tea Rooms"}, {"alias": "asianfusion", "title": "Asian Fusion"}, {"alias": "szechuan", "title": "Szechuan"}], "rating": "4.5", "coordinates": {"latitude": 40.7293403, "longitude": -73.9866071}, "location": {"address1": "152 2nd Ave", "address2": "Ste A", "address3": "", "city": "New York", "zip_code": "10003", "country": "US", "state": "NY", "display_address": ["152 2nd Ave", "Ste A", "New York, NY 10003"]}, "phone": "+19172615963", "display_phone": "(917) 261-5963"}
{"index": {"_index": "restaurants", "_id": "Vbmv3T7hr_owVic5BQXs5w"}}
{"id": "Vbmv3T7hr_owVic5BQXs5w", "name": "Din Soup Dumplings", "review_count": 163, "categories": [{"alias": "dimsum", "title": "Dim Sum"}, {"alias": "noodles", "title": "Noodles"}], "rating": "4.5", "coordinates": {"latitude": 40.69425, "longitude": -73.99277}, "location": {"address1": "162 Montague St", "address2": "", "address3": null, "city": "Brooklyn", "zip_code": "11201", "country": "US", "state": "NY", "display_address": ["162 Montague St", "Brooklyn, NY 11201"]}, "phone": "+17185503888", "display_phone": "(718) 550-3888"}
{"index": {"_index": "restaurants", "_id": "oJ6fy4fBv_3WskxH4NfNBg"}}
{"id": "oJ6fy4fBv_3WskxH4NfNBg", "name": "Chef Huang Jian Bing & Peking Duck", "review_count": 39, "categories": [{"alias": "chinese", "title": "Chinese"}], "rating": "4.5", "coordinates": {"latitude": 40.74531205210646, "longitude": -73.9757772}, "location": {"address1": "635 2nd Ave", "address2": "", "address3": null, "city": "New York", "zip_code": "10016", "country": "US", "state": "NY", "display_address": ["635 2nd Ave", "New York, NY 10016"]}, "phone": "+16469186065", "display_phone": "(646) 918-6065"}
{"index": {"_index": "restaurants", "_id": "gNGxh97n0NZgYG1Q_no9Kg"}}
{"id": "gNGxh97n0NZgYG1Q_no9Kg", "name": "Potluck Club", "review_count": 127, "categories": [{"alias": "chinese", "title": "Chinese"}], "rating": "4.5", "coordinates": {"latitude": 40.71952, "longitude": -73.99333}, "location": {"address1": "133 Chrystie St", "address2": null, "address3": "", "city": "New York", "zip_code": "10002", "country": "US", "state": "NY", "display_address": ["133 Chrystie St", "New York, NY 10002"]}, "phone": "", "display_phone": ""}
{"index": {"_index": "restaurants", "_id": "M-odQWSEfsR2mVEw7nKG-g"}}
{"id": "M-odQWSEfsR2mVEw7nKG-g", "name": "Nyonya", "review_count": 2321, "categories": [{"alias": "malaysian", "title": "Malaysian"}, {"alias": "chinese", "title": "Chinese"}], "rating": "4", "coordinates": {"latitude": 40.719116974367, "longitude": -73.9968322948353}, "location": {"address1": "199 Grand St", "address2": "", "address3": "", "city": "New York", "zip_code": "10013", "country": "US", "state": "NY", "display_address": ["199 Grand St", "New York, NY 10013"]}, "phone": "+12123343669", "display_phone": "(212) 334-3669"}
{"index": {"_index": "restaurants", "_id": "8YWLuLUKj0t_0_Xv06UUtw"}}
{"id": "8YWLuLUKj0t_0_Xv06UUtw", "name": "Ye's Apothecary", "review_count": 180, "categories": [{"alias": "szechuan", "title": "Szechuan"}, {"alias": "speakeasies", "title": "Speakeasies"}], "rating": "4.5", "coordinates": {"latitude": 40.71945, "longitude": -73.9898}, "location": {"address1": "119 Orchard St", "address2": null, "address3": "", "city": "New York", "zip_code": "10002", "country": "US", "state": "NY", "display_address": ["119 Orchard St", "New York, NY 10002"]}, "phone": "", "display_phone": ""}
{"index": {"_index": "restaurants", "_id": "hNFe8WhCibrqT4sFcZmAgw"}}
{"id": "hNFe8WhCibrqT4sFcZmAgw", "name": "Kong Sihk Tong \u6e2f\u98df\u5802", "review_count": 639, "categories": [{"alias": "chinese", "title": "Chinese"}, {"alias": "hkcafe", "title": "Hong Kong Style Cafe"}], "rating": "4", "coordinates": {"latitude": 40.715433714742154, "longitude": -73.9981186386701}, "location": {"address1": "65 Bayard St", "address2": "", "address3": null, "city": "New York", "zip_code": "10013", "country": "US", "state": "NY", "display_address": ["65 Bayard St", "New York, NY 10013"]}, "phone": "+16468506140", "display_phone": "(646) 850-6140"}
{"index": {"_index": "restaurants", "_id": "3gqKLANaXNsHZnPDjKrcTg"}}
{"id": "3gqKLANaXNsHZnPDjKrcTg", "name": "Win Son", "review_count": 668, "categories": [{"alias": "taiwanese", "title": "Taiwanese"}, {"alias": "newamerican", "title": "American (New)"}], "rating": "4", "coordinates": {"latitude": 40.70747, "longitude": -73.94339}, "location": {"address1": "159 Graham Ave", "address2": null, "address3": "", "city": "Brooklyn", "zip_code": "11206", "country": "US", "state": "NY", "display_address": ["159 Graham Ave", "Brooklyn, NY 11206"]}, "phone": "+13474576010", "display_phone": "(347) 457-6010"}
{"index": {"_index": "restaurants", "_id": "R26zweQ8-xoZS7iHkXQOvw"}}
{"id": "R26zweQ8-xoZS7iHkXQOvw", "name": "Shanghai 21", "review_count": 1924, "categories": [{"alias": "shanghainese", "title": "Shanghainese"}], "rating": "4", "coordinates": {"latitude": 40.71441, "longitude": -73.99902}, "location": {"address1": "21 Mott St", "address2": "", "address3": "", "city": "New York", "zip_code": "10013", "country": "US", "state": "NY", "display_address": ["21 Mott St", "New York, NY 10013"]}, "phone": "+12127666311", "display_phone": "(212) 766-6311"}
{"index": {"_index": "restaurants", "_id": "iSjPBJRiWqrgxW7ZM3CGig"}}
{"id": "iSjPBJRiWqrgxW7ZM3CGig", "name": "Birds of a Feather", "review_count": 559, "categories": [{"alias": "szechuan", "title": "Szechuan"}], "rating": "4", "coordinates": {"latitude": 40.71442, "longitude": -73.960441}, "location": {"address1": "191 Grand St", "address2": "", "address3": null, "city": "Brooklyn", "zip_code": "11211", "country": "US", "state": "NY", "display_address": ["191 Grand St", "Brooklyn, NY 11211"]}, "phone": "+17189696800", "display_phone": "(718) 969-6800"}
{"index": {"_index": "restaurants", "_id": "rPTX2J5KGDkN1QhPD-QOvg"}}
{"id": "rPTX2J5KGDkN1QhPD-QOvg", "name": "Bites of Xi'an", "review_count": 199, "categories": [{"alias": "chinese", "title": "Chinese"}], "rating": "4.5", "coordinates": {"latitude": 40.68807, "longitude": -73.98199}, "location": {"address1": "318 Livingston St", "address2": "", "address3": null, "city": "Brooklyn", "zip_code": "11217", "country": "US", "state": "NY", "display_address": ["318 Livingston St", "Brooklyn, NY 11217"]}, "phone": "+13478896725", "display_phone": "(347) 889-6725"}
{"index": {"_index": "restaurants", "_id": "h0pRCiJDrCN7tm3VX5tILQ"}}
{"id": "h0pRCiJDrCN7tm3VX5tILQ", "name": "CHILI", "review_count": 581, "categories": [{"alias": "szechuan", "title": "Szechuan"}, {"alias": "dimsum", "title": "Dim Sum"}, {"alias": "cocktailbars", "title": "Cocktail Bars"}], "rating": "4.5", "coordinates": {"latitude": 40.75002, "longitude": -73.98215}, "location": {"address1": "13 E 37th St", "address2": null, "address3": "", "city": "New York", "zip_code": "10016", "country": "US", "state": "NY", "display_address": ["13 E 37th St", "New York, NY 10016"]}, "phone": "+16468820666", "display_phone": "(646) 882-0666"}
{"index": {"_index": "restaurants", "_id": "HOfNVzn45dwctTOCLVPj2g"}}
{"id": "HOfNVzn45dwctTOCLVPj2g", "name": "So Do Fun", "review_count": 40, "categories": [{"alias": "szechuan", "title": "Szechuan"}, {"alias": "desserts", "title": "Desserts"}, {"alias": "soup", "title": "Soup"}], "rating": "4.5", "coordinates": {"latitude": 40.73415, "longitude": -73.98633}, "location": {"address1": "155 3rd Ave", "address2": null, "address3": "", "city": "New York", "zip_code": "10003", "country": "US", "state": "NY", "display_address": ["155 3rd Ave", "New York, NY 10003"]}, "phone": "+16468223530", "display_phone": "(646) 822-3530"}
{"index": {"_index": "restaurants", "_id": "E_Rxnmim6J2ECFtU0QGlsQ"}}
{"id": "E_Rxnmim6J2ECFtU0QGlsQ", "name": "Uncle Lou", "review_count": 275, "categories": [{"alias": "cantonese", "title": "Cantonese"}], "rating": "4", "coordinates": {"latitude": 40.71623, "longitude": -73.99925}, "location": {"address1": "73 Mulberry St", "address2": null, "address3": "", "city": "New York", "zip_code": "10013", "country": "US", "state": "NY", "display_address": ["73 Mulberry St", "New York, NY 10013"]}, "phone": "+12129665538", "display_phone": "(212) 966-5538"}
{"index": {"_index": "restaurants", "_id": "bVkjBJlAIwKAj9Aw1KVWjA"}}
{"id": "bVkjBJlAIwKAj9Aw1KVWjA", "name": "Dim Sum Palace", "review_count": 1632, "categories": [{"alias": "dimsum", "title": "Dim Sum"}, {"alias": "cantonese", "title": "Cantonese"}], "rating": "4", "coordinates": {"latitude": 40.76015, "longitude": -73.9893699}, "location": {"address1": "334 W 46th St", "address2": null, "address3": "", "city": "New York", "zip_code": "10036", "country": "US", "state": "NY", "display_address": ["334 W 46th St", "New York, NY 10036"]}, "phone": "+16468611910", "display_phone": "(646) 861-1910"}
{"index": {"_index": "restaurants", "_id": "iiP46Z-A_ClynkS_qFQKEQ"}}
{"id": "iiP46Z-A_ClynkS_qFQKEQ", "name": "Munchiez by Mei Lai Wah", "review_count": 86, "categories": [{"alias": "dimsum", "title": "Dim Sum"}, {"alias": "coffee", "title": "Coffee & Tea"}], "rating": "5", "coordinates": {"latitude": 40.730027, "longitude": -74.000204}, "location": {"address1": "126 MacDougal St", "address2": "", "address3": null, "city": "New York", "zip_code": "10012", "country": "US", "state": "NY", "display_address": ["126 MacDougal St", "New York, NY 10012"]}, "phone": "", "display_phone": ""}
{"index": {"_index": "restaurants", "_id": "QQfwlKFD6X8-ZXf7gfQZqg"}}
{"id": "QQfwlKFD6X8-ZXf7gfQZqg", "name": "Hardee", "review_count": 31, "categories": [{"alias": "chinese", "title": "Chinese"}], "rating": "4.5", "coordinates": {"latitude": 40.6933441162109, "longitude": -73.9722290039062}, "location": {"address1": "351 Myrtle Ave", "address2": "", "address3": "", "city": "New York", "zip_code": "11205", "country": "US", "state": "NY", "display_address": ["351 Myrtle Ave", "New York, NY 11205"]}, "phone": "+13478897210", "display_phone": "(347) 889-7210"}
{"index": {"_index": "restaurants", "_id": "cOtB9fWWLrbaBebZDjJquQ"}}
{"id": "cOtB9fWWLrbaBebZDjJquQ", "name": "DunHuang Miss Noodles", "review_count": 84, "categories": [{"alias": "chinese", "title": "Chinese"}, {"alias": "noodles", "title": "Noodles"}, {"alias": "asianfusion", "title": "Asian Fusion"}], "rating": "4", "coordinates": {"latitude": 40.693868137768895, "longitude": -73.9634565145772}, "location": {"address1": "531 Myrtle Ave", "address2": null, "address3": "", "city": "Brooklyn", "zip_code": "11205", "country": "US", "state": "NY", "display_address": ["531 Myrtle Ave", "Brooklyn, NY 11205"]}, "phone": "+17187893530", "display_phone": "(718) 789-3530"}
{"index": {"_index": "restaurants", "_id": "vZgJyMZlpSSS_Y-duxd4_A"}}
{"id": "vZgJyMZlpSSS_Y-duxd4_A", "name": "Kings Co Imperial", "review_count": 394, "categories": [{"alias": "dimsum", "title": "Dim Sum"}, {"alias": "noodles", "title": "Noodles"}, {"alias": "szechuan", "title": "Szechuan"}], "rating": "4", "coordinates": {"latitude": 40.71512, "longitude": -73.95097}, "location": {"address1": "20 Skillman Ave", "address2": "", "address3": "", "city": "Brooklyn", "zip_code": "11211", "country": "US", "state": "NY", "display_address": ["20 Skillman Ave", "Brooklyn, NY 11211"]}, "phone": "+17186102000", "display_phone": "(718) 610-2000"}
{"index": {"_index": "restaurants", "_id": "97q5nUQTuBo_h00XCxna2A"}}
{"id": "97q5nUQTuBo_h00XCxna2A", "name": "Tasty Hand-Pulled Noodles", "review_count": 1816, "categories": [{"alias": "chinese", "title": "Chinese"}, {"alias": "noodles", "title": "Noodles"}], "rating": "4", "coordinates": {"latitude": 40.7142, "longitude": -73.99787}, "location": {"address1": "1 Doyers St", "address2": "", "address3": "", "city": "New York", "zip_code": "10013", "country": "US", "state": "NY", "display_address": ["1 Doyers St", "New York, NY 10013"]}, "phone": "+12127911817", "display_phone": "(212) 791-1817"}
{"index": {"_index": "restaurants", "_id": "bnDfFdiCcPzhuNWUJORvLQ"}}
{"id": "bnDfFdiCcPzhuNWUJORvLQ", "name": "Noodle Village", "review_count": 1339, "categories": [{"alias": "chinese", "title": "Chinese"}, {"alias": "noodles", "title": "Noodles"}], "rating": "4", "coordinates": {"latitude": 40.714167, "longitude": -73.998803}, "location": {"address1": "13 Mott St", "address2": "", "address3": "", "city": "New York", "zip_code": "10013", "country": "US", "state": "NY", "display_address": ["13 Mott St", "New York, NY 10013"]}, "phone": "+12122330788", "display_phone": "(212) 233-0788"}
{"index": {"_index": "restaurants", "_id": "olRNNJCJ2TJvPRmjBiOcGA"}}
{"id": "olRNNJCJ2TJvPRmjBiOcGA", "name": "Silky Kitchen", "review_count": 281, "categories": [{"alias": "chinese", "title": "Chinese"}, {"alias": "noodles", "title": "Noodles"}], "rating": "4.5", "coordinates": {"latitude": 40.73297, "longitude": -73.98829}, "location": {"address1": "137 E 13th St", "address2": "", "address3": null, "city": "New York", "zip_code": "10003", "country": "US", "state": "NY", "display_address": ["137 E 13th St", "New York, NY 10003"]}, "phone": "+16468500635", "display_phone": "(646) 850-0635"}
{"index": {"_index": "restaurants", "_id": "xq0cX_DgxiJMXwhmEl9kUA"}}
{"id": "xq0cX_DgxiJMXwhmEl9kUA", "name": "Caf\u00e9 China", "review_count": 1854, "categories": [{"alias": "szechuan", "title": "Szechuan"}], "rating": "4", "coordinates": {"latitude": 40.75157, "longitude": -73.98584}, "location": {"address1": "59 W 37th St", "address2": null, "address3": "", "city": "New York", "zip_code": "10018", "country": "US", "state": "NY", "display_address": ["59 W 37th St", "New York, NY 10018"]}, "phone": "+12122132810", "display_phone": "(212) 213-2810"}
{"index": {"_index": "restaurants", "_id": "YDZX2bJ1IyV0lunBYqbb4w"}}
{"id": "YDZX2bJ1IyV0lunBYqbb4w", "name": "New Chinatown  Asian Cuisine/ Bar", "review_count": 2, "categories": [{"alias": "asianfusion", "title": "Asian Fusion"}, {"alias": "thai", "title": "Thai"}, {"alias": "chinese", "title": "Chinese"}], "rating": "4.5", "coordinates": {"latitude": 40.782945, "longitude": -73.95132}, "location": {"address1": "1650 3rd Ave", "address2": null, "address3": "", "city": "New York", "zip_code": "10128", "country": "US", "state": "NY", "display_address": ["1650 3rd Ave", "New York, NY 10128"]}, "phone": "+12129873500", "display_phone": "(212) 987-3500"}
{"index": {"_index": "restaurants", "_id": "scTDvJ2M2jDbb1ntVeIyxA"}}
{"id": "scTDvJ2M2jDbb1ntVeIyxA", "name": "Hao Noodle - West Village", "review_count": 832, "categories": [{"alias": "chinese", "title": "Chinese"}, {"alias": "noodles", "title": "Noodles"}], "rating": "4", "coordinates": {"latitude": 40.7334863190479, "longitude": -73.9998929006093}, "location": {"address1": "401 6th Ave", "address2": "", "address3": "", "city": "New York", "zip_code": "10014", "country": "US", "state": "NY", "display_address": ["401 6th Ave", "New York, NY 10014"]}, "phone": "+12126338900", "display_phone": "(212) 633-8900"}
{"index": {"_index": "restaurants", "_id": "SYFLyQAFRFoDURRWafeLKA"}}
{"id": "SYFLyQAFRFoDURRWafeLKA", "name": "Lin & Daughters", "review_count": 13, "categories": [{"alias": "chinese", "title": "Chinese"}, {"alias": "noodles", "title": "Noodles"}, {"alias": "bubbletea", "title": "Bubble Tea"}], "rating": "5", "coordinates": {"latitude": 40.73253, "longitude": -74.00167}, "location": {"address1": "181 West 4th St", "address2": null, "address3": "", "city": "New York", "zip_code": "10014", "country": "US", "state": "NY", "display_address": ["181 West 4th St", "New York, NY 10014"]}, "phone": "+19176450229", "display_phone": "(917) 645-0229"}
{"index": {"_index": "restaurants", "_id": "j61hBldPvd47MdLgeySlxQ"}}
{"id": "j61hBldPvd47MdLgeySlxQ", "name": "Chinah", "review_count": 5, "categories": [{"alias": "chinese", "title": "Chinese"}], "rating": "4.5", "coordinates": {"latitude": 40.69359, "longitude": -73.9857}, "location": {"address1": "2 Metrotech Ctr", "address2": null, "address3": "", "city": "Brooklyn", "zip_code": "11201", "country": "US", "state": "NY", "display_address": ["2 Metrotech Ctr", "Brooklyn, NY 11201"]}, "phone": "", "display_phone": ""}
{"index": {"_index": "restaurants", "_id": "DpfE0gPBXj-aj2pnEh4E2Q"}}
{"id": "DpfE0gPBXj-aj2pnEh4E2Q", "name": "Wei Williamsburg", "review_count": 217, "categories": [{"alias": "chinese", "title": "Chinese"}], "rating": "4", "coordinates": {"latitude": 40.7107868, "longitude": -73.9542168}, "location": {"address1": "145 Borinquen Pl", "address2": null, "address3": "", "city": "Brooklyn", "zip_code": "11211", "country": "US", "state": "NY", "display_address": ["145 Borinquen Pl", "Brooklyn, NY 11211"]}, "phone": "+17183601908", "display_phone": "(718) 360-1908"}
{"index": {"_index": "restaurants", "_id": "A_fZL0ir_actclrL-ePTOw"}}
{"id": "A_fZL0ir_actclrL-ePTOw", "name": "JJ Kitchen", "review_count": 28, "categories": [{"alias": "chinese", "title": "Chinese"}], "rating": "4.5", "coordinates": {"latitude": 40.69354, "longitude": -73.96627}, "location": {"address1": "475 B Myrtle Ave", "address2": "", "address3": "", "city": "Brooklyn", "zip_code": "11205", "country": "US", "state": "NY", "display_address": ["475 B Myrtle Ave", "Brooklyn, NY 11205"]}, "phone": "+17186360468", "display_phone": "(718) 636-0468"}
{"index": {"_index": "restaurants", "_id": "QaolMEijS7L6eodSneOdng"}}
{"id": "QaolMEijS7L6eodSneOdng", "name": "Tri Dim Shanghai West", "review_count": 205, "categories": [{"alias": "shanghainese", "title": "Shanghainese"}, {"alias": "szechuan", "title": "Szechuan"}, {"alias": "dimsum", "title": "Dim Sum"}], "rating": "4", "coordinates": {"latitude": 40.78412, "longitude": -73.97368}, "location": {"address1": "467 Columbus Ave", "address2": "", "address3": null, "city": "New York", "zip_code": "10024", "country": "US", "state": "NY", "display_address": ["467 Columbus Ave", "New York, NY 10024"]}, "phone": "+12125851398", "display_phone": "(212) 585-1398"}
{"index": {"_index": "restaurants", "_id": "BkXb82Y2OIsQ5RpNNQOYmQ"}}
{"id": "BkXb82Y2OIsQ5RpNNQOYmQ", "name": "China Express", "review_count": 128, "categories": [{"alias": "chinese", "title": "Chinese"}], "rating": "4", "coordinates": {"latitude": 40.70606422212563, "longitude": -73.949992}, "location": {"address1": "192 Union Ave", "address2": "", "address3": "", "city": "Brooklyn", "zip_code": "11211", "country": "US", "state": "NY", "display_address": ["192 Union Ave", "Brooklyn, NY 11211"]}, "phone": "+17182187919", "display_phone": "(718) 218-7919"}
{"index": {"_index": "restaurants", "_id": "Q1TpfbuPwKPFrNFyu-u2_g"}}
{"id": "Q1TpfbuPwKPFrNFyu-u2_g", "name": "Han Dynasty", "review_count": 390, "categories": [{"alias": "szechuan", "title": "Szechuan"}, {"alias": "cocktailbars", "title": "Cocktail Bars"}], "rating": "3.5", "coordinates": {"latitude": 40.6911319610036, "longitude": -73.9825977757573}, "location": {"address1": "1 Dekalb Ave", "address2": "", "address3": null, "city": "Brooklyn", "zip_code": "11201", "country": "US", "state": "NY", "display_address": ["1 Dekalb Ave", "Brooklyn, NY 11201"]}, "phone": "+17188580588", "display_phone": "(718) 858-0588"}
{"index": {"_index": "restaurants", "_id": "jLhKLKuNPMTzAMJgEY5DsQ"}}
{"id": "jLhKLKuNPMTzAMJgEY5DsQ", "name": "Monarch Restaurant", "review_count": 109, "categories": [{"alias": "panasian", "title": "Pan Asian"}, {"alias": "cocktailbars", "title": "Cocktail Bars"}, {"alias": "breakfast_brunch", "title": "Breakfast & Brunch"}], "rating": "4.5", "coordinates": {"latitude": 40.715895, "longitude": -73.962271}, "location": {"address1": "146 Metropolitan Ave", "address2": "", "address3": null, "city": "Brooklyn", "zip_code": "11249", "country": "US", "state": "NY", "display_address": ["146 Metropolitan Ave", "Brooklyn, NY 11249"]}, "phone": "+19179091596", "display_phone": "(917) 909-1596"}
{"index": {"_index": "restaurants", "_id": "BNaveJmi-OUGKG9sRfrIhA"}}
{"id": "BNaveJmi-OUGKG9sRfrIhA", "name": "Mr. Sun", "review_count": 188, "categories": [{"alias": "dimsum", "title": "Dim Sum"}, {"alias": "seafood", "title": "Seafood"}], "rating": "4.5", "coordinates": {"latitude": 40.75809, "longitude": -73.98026}, "location": {"address1": "48 W 48th St", "address2": "", "address3": null, "city": "New York", "zip_code": "10036", "country": "US", "state": "NY", "display_address": ["48 W 48th St", "New York, NY 10036"]}, "phone": "+17183169811", "display_phone": "(718) 316-9811"}
{"index": {"_index": "restaurants", "_id": "k0fnJRSV8tzM2bzkvFdlGg"}}
{"id": "k0fnJRSV8tzM2bzkvFdlGg", "name": "Bonnie's", "review_count": 113, "categories": [{"alias": "cantonese", "title": "Cantonese"}], "rating": "3.5", "coordinates": {"latitude": 40.71783, "longitude": -73.94651}, "location": {"address1": "398 Manhattan Ave", "address2": null, "address3": "", "city": "Brooklyn", "zip_code": "11211", "country": "US", "state": "NY", "display_address": ["398 Manhattan Ave", "Brooklyn, NY 11211"]}, "phone": "+19148753709", "display_phone": "(914) 875-3709"}
{"index": {"_index": "restaurants", "_id": "AyL0Q6_hFD04GLxwRxOFrA"}}
{"id": "AyL0Q6_hFD04GLxwRxOFrA", "name": "Pecking House", "review_count": 59, "categories": [{"alias": "cantonese", "title": "Cantonese"}, {"alias": "asianfusion", "title": "Asian Fusion"}], "rating": "4", "coordinates": {"latitude": 40.6796443, "longitude": -73.97457729999999}, "location": {"address1": "244 Flatbush Ave", "address2": "", "address3": null, "city": "Brooklyn", "zip_code": "11217", "country": "US", "state": "NY", "display_address": ["244 Flatbush Ave", "Brooklyn, NY 11217"]}, "phone": "+17184549230", "display_phone": "(718) 454-9230"}
{"index": {"_index": "restaurants", "_id": "wjQcQ2D4laQp--xCBrM17Q"}}
{"id": "wjQcQ2D4laQp--xCBrM17Q", "name": "JiangNan\u6c5f\u5357 - Montclair", "review_count": 32, "categories": [{"alias": "asianfusion", "title": "Asian Fusion"}], "rating": "4.5", "coordinates": {"latitude": 40.812627, "longitude": -74.215467}, "location": {"address1": "379 Bloomfield Ave", "address2": null, "address3": "", "city": "Montclair", "zip_code": "07042", "country": "US", "state": "NJ", "display_address": ["379 Bloomfield Ave", "Montclair, NJ 07042"]}, "phone": "+19737833335", "display_phone": "(973) 783-3335"}
{"index": {"_index": "restaurants", "_id": "UK1oGbr8GU2rufpnJR4-HQ"}}
{"id": "UK1oGbr8GU2rufpnJR4-HQ", "name": "Joe's Home of Soup Dumplings", "review_count": 388, "categories": [{"alias": "shanghainese", "title": "Shanghainese"}, {"alias": "noodles", "title": "Noodles"}], "rating": "4.5", "coordinates": {"latitude": 40.75723, "longitude": -73.97702}, "location": {"address1": "7 E 48th St", "address2": "between Fifth and Madison avenues", "address3": null, "city": "New York", "zip_code": "10017", "country": "US", "state": "NY", "display_address": ["7 E 48th St", "between Fifth and Madison avenues", "New York, NY 10017"]}, "phone": "+12123333868", "display_phone": "(212) 333-3868"}
{"index": {"_index": "restaurants", "_id": "oe8GEFE4QLFAKt87y7zcgA"}}
{"id": "oe8GEFE4QLFAKt87y7zcgA", "name": "Very Fresh Noodles", "review_count": 1336, "categories": [{"alias": "taiwanese", "title": "Taiwanese"}, {"alias": "chinese", "title": "Chinese"}, {"alias": "noodles", "title": "Noodles"}], "rating": "4.5", "coordinates": {"latitude": 40.74207, "longitude": -74.00565}, "location": {"address1": "409 W 15th St", "address2": null, "address3": "", "city": "New York", "zip_code": "10011", "country": "US", "state": "NY", "display_address": ["409 W 15th St", "New York, NY 10011"]}, "phone": "+13322156161", "display_phone": "(332) 215-6161"}
{"index": {"_index": "restaurants", "_id": "_7BGw3YFNOTzP1Www3zB7g"}}
{"id": "_7BGw3YFNOTzP1Www3zB7g", "name": "Mughlai Grill", "review_count": 492, "categories": [{"alias": "indpak", "title": "Indian"}], "rating": "4.5", "coordinates": {"latitude": 40.7210905, "longitude": -73.9840446}, "location": {"address1": "6 Clinton St", "address2": "", "address3": null, "city": "New York", "zip_code": "10002", "country": "US", "state": "NY", "display_address": ["6 Clinton St", "New York, NY 10002"]}, "phone": "+12125332828", "display_phone": "(212) 533-2828"}
{"index": {"_index": "restaurants", "_id": "zyQpS4QrYYB0VKXf7JPUlQ"}}
{"id": "zyQpS4QrYYB0VKXf7JPUlQ", "name": "Atithi Indian Cuisine", "review_count": 172, "categories": [{"alias": "indpak", "title": "Indian"}], "rating": "5", "coordinates": {"latitude": 40.714765, "longitude": -73.961606}, "location": {"address1": "159 Grand St", "address2": null, "address3": "", "city": "Brooklyn", "zip_code": "11249", "country": "US", "state": "NY", "display_address": ["159 Grand St", "Brooklyn, NY 11249"]}, "phone": "+17186849192", "display_phone": "(718) 684-9192"}
{"index": {"_index": "restaurants", "_id": "BXoW0AUDE7WZJcY-Vhqlbg"}}
{"id": "BXoW0AUDE7WZJcY-Vhqlbg", "name": "Indian Table", "review_count": 190, "categories": [{"alias": "indpak", "title": "Indian"}], "rating": "4.5", "coordinates": {"latitude": 40.6859591, "longitude": -73.9941661}, "location": {"address1": "234 Court St", "address2": "", "address3": null, "city": "Brooklyn", "zip_code": "11201", "country": "US", "state": "NY", "display_address": ["234 Court St", "Brooklyn, NY 11201"]}, "phone": "+13476893882", "display_phone": "(347) 689-3882"}
{"index": {"_index": "restaurants", "_id": "x0k5kFArHLijdY8-NEQ7Xg"}}
{"id": "x0k5kFArHLijdY8-NEQ7Xg", "name": "Bengal Tiger Indian Food", "review_count": 2264, "categories": [{"alias": "indpak", "title": "Indian"}], "rating": "4.5", "coordinates": {"latitude": 40.763167, "longitude": -73.977131}, "location": {"address1": "58 W 56th St", "address2": "Fl 2", "address3": "", "city": "New York", "zip_code": "10019", "country": "US", "state": "NY", "display_address": ["58 W 56th St", "Fl 2", "New York, NY 10019"]}, "phone": "+12122652703", "display_phone": "(212) 265-2703"}
{"index": {"_index": "restaurants", "_id": "7DUPGtHqVZHJ3yIufbWLsg"}}
{"id": "7DUPGtHqVZHJ3yIufbWLsg", "name": "Malai Marke Indian Cuisine", "review_count": 638, "categories": [{"alias": "indpak", "title": "Indian"}], "rating": "4", "coordinates": {"latitude": 40.726934, "longitude": -73.98758}, "location": {"address1": "318 E 6th St", "address2": null, "address3": "", "city": "New York", "zip_code": "10003", "country": "US", "state": "NY", "display_address": ["318 E 6th St", "New York, NY 10003"]}, "phone": "+12127777729", "display_phone": "(212) 777-7729"}
{"index": {"_index": "restaurants", "_id": "EKY8DwZVWpkgv6IWrepbWg"}}
{"id": "EKY8DwZVWpkgv6IWrepbWg", "name": "Namaste", "review_count": 309, "categories": [{"alias": "indpak", "title": "Indian"}], "rating": "4.5", "coordinates": {"latitude": 40.676687, "longitude": -73.979965}, "location": {"address1": "195 5th Ave", "address2": null, "address3": "", "city": "Brooklyn", "zip_code": "11217", "country": "US", "state": "NY", "display_address": ["195 5th Ave", "Brooklyn, NY 11217"]}, "phone": "+17188571951", "display_phone": "(718) 857-1951"}
{"index": {"_index": "restaurants", "_id": "ByJBXa3HwPqw8eSPfDObkg"}}
{"id": "ByJBXa3HwPqw8eSPfDObkg", "name": "Mint Heights", "review_count": 91, "categories": [{"alias": "indpak", "title": "Indian"}], "rating": "4.5", "coordinates": {"latitude": 40.699657772028765, "longitude": -73.99217437260721}, "location": {"address1": "46 Henry St", "address2": "", "address3": null, "city": "Brooklyn", "zip_code": "11201", "country": "US", "state": "NY", "display_address": ["46 Henry St", "Brooklyn, NY 11201"]}, "phone": "+13479160325", "display_phone": "(347) 916-0325"}
{"index": {"_index": "restaurants", "_id": "Txm8KtUh9Mn2E7980jTr5g"}}
{"id": "Txm8KtUh9Mn2E7980jTr5g", "name": "Dhamaka", "review_count": 352, "categories": [{"alias": "indpak", "title": "Indian"}], "rating": "4", "coordinates": {"latitude": 40.7180658, "longitude": -73.9881304}, "location": {"address1": "119 Delancey St", "address2": "Essex Market, Store  34", "address3": null, "city": "New York", "zip_code": "10002", "country": "US", "state": "NY", "display_address": ["119 Delancey St", "Essex Market, Store  34", "New York, NY 10002"]}, "phone": "+12122048616", "display_phone": "(212) 204-8616"}
{"index": {"_index": "restaurants", "_id": "_z2_1TE_1brlvljiGtJ4mA"}}
{"id": "_z2_1TE_1brlvljiGtJ4mA", "name": "Aahar Indian Cuisine", "review_count": 425, "categories": [{"alias": "indpak", "title": "Indian"}], "rating": "4.5", "coordinates": {"latitude": 40.71334, "longitude": -74.0081}, "location": {"address1": "10 Murray St", "address2": null, "address3": "", "city": "New York", "zip_code": "10007", "country": "US", "state": "NY", "display_address": ["10 Murray St", "New York, NY 10007"]}, "phone": "+16466493374", "display_phone": "(646) 649-3374"}
{"index": {"_index": "restaurants", "_id": "HFIu45xr93jqchnN1YVJeQ"}}
{"id": "HFIu45xr93jqchnN1YVJeQ", "name": "Masalawala & Sons", "review_count": 37, "categories": [{"alias": "indpak", "title": "Indian"}], "rating": "4", "coordinates": {"latitude": 40.67148382626093, "longitude": -73.9842655}, "location": {"address1": "365 5th Ave", "address2": "", "address3": null, "city": "Brooklyn", "zip_code": "11215", "country": "US", "state": "NY", "display_address": ["365 5th Ave", "Brooklyn, NY 11215"]}, "phone": "+12123589300", "display_phone": "(212) 358-9300"}
{"index": {"_index": "restaurants", "_id": "3hlAeWgSKAnSQ1tg8k8D8g"}}
{"id": "3hlAeWgSKAnSQ1tg8k8D8g", "name": "Alachi Masala", "review_count": 270, "categories": [{"alias": "indpak", "title": "Indian"}], "rating": "4", "coordinates": {"latitude": 40.786196, "longitude": -73.976448}, "location": {"address1": "488 Amsterdam Ave", "address2": "", "address3": "", "city": "New York", "zip_code": "10024", "country": "US", "state": "NY", "display_address": ["488 Amsterdam Ave", "New York, NY 10024"]}, "phone": "+12128740737", "display_phone": "(212) 874-0737"}
{"index": {"_index": "restaurants", "_id": "Z_fT0KLZV3y80LHUMlmbig"}}
{"id": "Z_fT0KLZV3y80LHUMlmbig", "name": "Khiladi NYC", "review_count": 192, "categories": [{"alias": "indpak", "title": "Indian"}], "rating": "4.5", "coordinates": {"latitude": 40.727536, "longitude": -73.97926}, "location": {"address1": "175 Avenue B", "address2": "", "address3": null, "city": "New York", "zip_code": "10009", "country": "US", "state": "NY", "display_address": ["175 Avenue B", "New York, NY 10009"]}, "phone": "+16467910351", "display_phone": "(646) 791-0351"}
{"index": {"_index": "restaurants", "_id": "Xqk91WuhMeYS4pedccUYgA"}}
{"id": "Xqk91WuhMeYS4pedccUYgA", "name": "Gazab", "review_count": 202, "categories": [{"alias": "indpak", "title": "Indian"}], "rating": "4.5", "coordinates": {"latitude": 40.72191, "longitude": -73.98666}, "location": {"address1": "179 Essex St", "address2": "", "address3": null, "city": "New York", "zip_code": "10002", "country": "US", "state": "NY", "display_address": ["179 Essex St", "New York, NY 10002"]}, "phone": "+19173882664", "display_phone": "(917) 388-2664"}
{"index": {"_index": "restaurants", "_id": "t6PzD4uzBOfyCLcd_lT8cQ"}}
{"id": "t6PzD4uzBOfyCLcd_lT8cQ", "name": "Sathi", "review_count": 269, "categories": [{"alias": "indpak", "title": "Indian"}, {"alias": "himalayan", "title": "Himalayan/Nepalese"}], "rating": "4.5", "coordinates": {"latitude": 40.73621, "longitude": -73.98528}, "location": {"address1": "216 3rd Ave", "address2": null, "address3": "", "city": "New York", "zip_code": "10003", "country": "US", "state": "NY", "display_address": ["216 3rd Ave", "New York, NY 10003"]}, "phone": "+12122603700", "display_phone": "(212) 260-3700"}
{"index": {"_index": "restaurants", "_id": "MtZaEGCm6zdAV8W4TWlerQ"}}
{"id": "MtZaEGCm6zdAV8W4TWlerQ", "name": "Masti Indian Grill & Chatt Bar", "review_count": 112, "categories": [{"alias": "indpak", "title": "Indian"}], "rating": "4.5", "coordinates": {"latitude": 40.710625, "longitude": -73.9583}, "location": {"address1": "184 Havemeyer St", "address2": null, "address3": "", "city": "New York", "zip_code": "11211", "country": "US", "state": "NY", "display_address": ["184 Havemeyer St", "New York, NY 11211"]}, "phone": "+17185991516", "display_phone": "(718) 599-1516"}
{"index": {"_index": "restaurants", "_id": "79tuTkX_lPft7hMxFVjENg"}}
{"id": "79tuTkX_lPft7hMxFVjENg", "name": "Mint Heights - Fort Greene", "review_count": 3, "categories": [{"alias": "indpak", "title": "Indian"}], "rating": "4.5", "coordinates": {"latitude": 40.693045, "longitude": -73.971443}, "location": {"address1": "368 Myrtle Ave", "address2": null, "address3": "", "city": "Brooklyn", "zip_code": "11205", "country": "US", "state": "NY", "display_address": ["368 Myrtle Ave", "Brooklyn, NY 11205"]}, "phone": "+17182374008", "display_phone": "(718) 237-4008"}
{"index": {"_index": "restaurants", "_id": "CVpha6hKVu_r1lx6JxNIPg"}}
{"id": "CVpha6hKVu_r1lx6JxNIPg", "name": "Veeray da Dhaba", "review_count": 87, "categories": [{"alias": "indpak", "title": "Indian"}], "rating": "4.5", "coordinates": {"latitude": 40.730819, "longitude": -73.982723}, "location": {"address1": "222 1st Ave", "address2": null, "address3": "", "city": "New York", "zip_code": "10009", "country": "US", "state": "NY", "display_address": ["222 1st Ave", "New York, NY 10009"]}, "phone": "+12127771420", "display_phone": "(212) 777-1420"}
{"index": {"_index": "restaurants", "_id": "mHRu4KZXYM_RwyFXBGncsA"}}
{"id": "mHRu4KZXYM_RwyFXBGncsA", "name": "INDAY All Day", "review_count": 15, "categories": [{"alias": "indpak", "title": "Indian"}, {"alias": "salad", "title": "Salad"}, {"alias": "gluten_free", "title": "Gluten-Free"}], "rating": "4", "coordinates": {"latitude": 40.71471, "longitude": -73.95921}, "location": {"address1": "658 Driggs Ave", "address2": null, "address3": "", "city": "Brooklyn", "zip_code": "11211", "country": "US", "state": "NY", "display_address": ["658 Driggs Ave", "Brooklyn, NY 11211"]}, "phone": "+13322281566", "display_phone": "(332) 228-1566"}
{"index": {"_index": "restaurants", "_id": "u_CnSp9FieAuWqhvCn-A2A"}}
{"id": "u_CnSp9FieAuWqhvCn-A2A", "name": "Spice Mantra", "review_count": 61, "categories": [{"alias": "indpak", "title": "Indian"}], "rating": "5", "coordinates": {"latitude": 40.75825, "longitude": -73.96633}, "location": {"address1": "1047 2nd Ave", "address2": null, "address3": "", "city": "New York", "zip_code": "10022", "country": "US", "state": "NY", "display_address": ["1047 2nd Ave", "New York, NY 10022"]}, "phone": "+12125729900", "display_phone": "(212) 572-9900"}
{"index": {"_index": "restaurants", "_id": "WWpOWqOgS9ClYvxYVzR0lg"}}
{"id": "WWpOWqOgS9ClYvxYVzR0lg", "name": "Tikka Indian Grill", "review_count": 369, "categories": [{"alias": "indpak", "title": "Indian"}, {"alias": "desserts", "title": "Desserts"}, {"alias": "soup", "title": "Soup"}], "rating": "4", "coordinates": {"latitude": 40.71441, "longitude": -73.96078}, "location": {"address1": "185 Grand St", "address2": "", "address3": "", "city": "Brooklyn", "zip_code": "11211", "country": "US", "state": "NY", "display_address": ["185 Grand St", "Brooklyn, NY 11211"]}, "phone": "+17187682262", "display_phone": "(718) 768-2262"}
{"index": {"_index": "restaurants", "_id": "ZqOxAKVZEZTa4XS4zthp3Q"}}
{"id": "ZqOxAKVZEZTa4XS4zthp3Q", "name": "Bombay Grill", "review_count": 280, "categories": [{"alias": "indpak", "title": "Indian"}], "rating": "4.5", "coordinates": {"latitude": 40.68395749161352, "longitude": -73.9543181843268}, "location": {"address1": "1176 Bedford Ave", "address2": "", "address3": "", "city": "Brooklyn", "zip_code": "11216", "country": "US", "state": "NY", "display_address": ["1176 Bedford Ave", "Brooklyn, NY 11216"]}, "phone": "+17184840004", "display_phone": "(718) 484-0004"}
{"index": {"_index": "restaurants", "_id": "YDtIHtfvWd4W36wq6UAjoA"}}
{"id": "YDtIHtfvWd4W36wq6UAjoA", "name": "Kitchen Grill Indian Restaurant", "review_count": 329, "categories": [{"alias": "indpak", "title": "Indian"}], "rating": "4.5", "coordinates": {"latitude": 40.6827929, "longitude": -73.9644377}, "location": {"address1": "914A Fulton St", "address2": "", "address3": "", "city": "Brooklyn", "zip_code": "11238", "country": "US", "state": "NY", "display_address": ["914A Fulton St", "Brooklyn, NY 11238"]}, "phone": "+17187897800", "display_phone": "(718) 789-7800"}
{"index": {"_index": "restaurants", "_id": "ZRzG614HER-6fhZ3-MrEHw"}}
{"id": "ZRzG614HER-6fhZ3-MrEHw", "name": "TAGMO", "review_count": 58, "categories": [{"alias": "indpak", "title": "Indian"}], "rating": "4.5", "coordinates": {"latitude": 40.70762, "longitude": -74.00214}, "location": {"address1": "226 Front St", "address2": null, "address3": "", "city": "New York", "zip_code": "10038", "country": "US", "state": "NY", "display_address": ["226 Front St", "New York, NY 10038"]}, "phone": "+12122852253", "display_phone": "(212) 285-2253"}
{"index": {"_index": "restaurants", "_id": "iXrKGRzIZK0pp31mO3nBzA"}}
{"id": "iXrKGRzIZK0pp31mO3nBzA", "name": "Spice & Grill", "review_count": 174, "categories": [{"alias": "indpak", "title": "Indian"}, {"alias": "himalayan", "title": "Himalayan/Nepalese"}, {"alias": "seafood", "title": "Seafood"}], "rating": "4", "coordinates": {"latitude": 40.6933894, "longitude": -73.9679912}, "location": {"address1": "441 Myrtle Ave", "address2": "", "address3": "", "city": "Brooklyn", "zip_code": "11205", "country": "US", "state": "NY", "display_address": ["441 Myrtle Ave", "Brooklyn, NY 11205"]}, "phone": "+17188752525", "display_phone": "(718) 875-2525"}
{"index": {"_index": "restaurants", "_id": "rpzgv0Y6fIT6RcBsxFsrSg"}}
{"id": "rpzgv0Y6fIT6RcBsxFsrSg", "name": "Paratha Wala", "review_count": 503, "categories": [{"alias": "indpak", "title": "Indian"}, {"alias": "halal", "title": "Halal"}, {"alias": "bangladeshi", "title": "Bangladeshi"}], "rating": "4.5", "coordinates": {"latitude": 40.71044, "longitude": -73.84942}, "location": {"address1": "103-09 Metropolitan Ave", "address2": null, "address3": "", "city": "Forest Hills", "zip_code": "11375", "country": "US", "state": "NY", "display_address": ["103-09 Metropolitan Ave", "Forest Hills, NY 11375"]}, "phone": "+13475615319", "display_phone": "(347) 561-5319"}
{"index": {"_index": "restaurants", "_id": "1KGvtMU7VBcdlvxo2brdQg"}}
{"id": "1KGvtMU7VBcdlvxo2brdQg", "name": "Clove Indian Restaurant & Bar", "review_count": 328, "categories": [{"alias": "indpak", "title": "Indian"}], "rating": "4", "coordinates": {"latitude": 40.8212624, "longitude": -73.9506836}, "location": {"address1": "1592 Amsterdam Ave", "address2": null, "address3": "", "city": "New York", "zip_code": "10031", "country": "US", "state": "NY", "display_address": ["1592 Amsterdam Ave", "New York, NY 10031"]}, "phone": "+16469186644", "display_phone": "(646) 918-6644"}
{"index": {"_index": "restaurants", "_id": "fCxjrytrEw_l9vGjSCzszg"}}
{"id": "fCxjrytrEw_l9vGjSCzszg", "name": "Paisley", "review_count": 89, "categories": [{"alias": "indpak", "title": "Indian"}], "rating": "4.5", "coordinates": {"latitude": 40.722387, "longitude": -74.0095662}, "location": {"address1": "429 Greenwich St", "address2": "", "address3": null, "city": "New York", "zip_code": "10013", "country": "US", "state": "NY", "display_address": ["429 Greenwich St", "New York, NY 10013"]}, "phone": "+12122748003", "display_phone": "(212) 274-8003"}
{"index": {"_index": "restaurants", "_id": "xWVHj2XNcxEg79Nkb5Zb6Q"}}
{"id": "xWVHj2XNcxEg79Nkb5Zb6Q", "name": "Semma", "review_count": 220, "categories": [{"alias": "indpak", "title": "Indian"}, {"alias": "wine_bars", "title": "Wine Bars"}, {"alias": "cocktailbars", "title": "Cocktail Bars"}], "rating": "4", "coordinates": {"latitude": 40.736054206102615, "longitude": -74.0005639}, "location": {"address1": "60 Greenwich Ave", "address2": "", "address3": null, "city": "New York", "zip_code": "10011", "country": "US", "state": "NY", "display_address": ["60 Greenwich Ave", "New York, NY 10011"]}, "phone": "+12123738900", "display_phone": "(212) 373-8900"}
{"index": {"_index": "restaurants", "_id": "ZNJ4ij7_xOlKSeMeEh1khA"}}
{"id": "ZNJ4ij7_xOlKSeMeEh1khA", "name": "Rowdy Rooster", "review_count": 153, "categories": [{"alias": "indpak", "title": "Indian"}, {"alias": "chickenshop", "title": "Chicken Shop"}], "rating": "4.5", "coordinates": {"latitude": 40.728473350506725, "longitude": -73.98500709999999}, "location": {"address1": "149 1st Ave", "address2": "", "address3": null, "city": "New York", "zip_code": "10003", "country": "US", "state": "NY", "display_address": ["149 1st Ave", "New York, NY 10003"]}, "phone": "", "display_phone": ""}
{"index": {"_index": "restaurants", "_id": "z2VXX7wGl8XZ6_oo9W3koA"}}
{"id": "z2VXX7wGl8XZ6_oo9W3koA", "name": "Patiala Indian Grill", "review_count": 542, "categories": [{"alias": "indpak", "title": "Indian"}], "rating": "4.5", "coordinates": {"latitude": 40.7534700430117, "longitude": -73.99595067259492}, "location": {"address1": "371 W 34th St", "address2": "", "address3": "", "city": "New York", "zip_code": "10001", "country": "US", "state": "NY", "display_address": ["371 W 34th St", "New York, NY 10001"]}, "phone": "+12125648255", "display_phone": "(212) 564-8255"}
{"index": {"_index": "restaurants", "_id": "jYhbUh1TV7SCfPxjIhVpcg"}}
{"id": "jYhbUh1TV7SCfPxjIhVpcg", "name": "Baar Baar", "review_count": 1170, "categories": [{"alias": "gastropubs", "title": "Gastropubs"}, {"alias": "indpak", "title": "Indian"}, {"alias": "cocktailbars", "title": "Cocktail Bars"}], "rating": "4", "coordinates": {"latitude": 40.7244378855031, "longitude": -73.9915524}, "location": {"address1": "13 E 1st St", "address2": "", "address3": "", "city": "New York", "zip_code": "10003", "country": "US", "state": "NY", "display_address": ["13 E 1st St", "New York, NY 10003"]}, "phone": "+12122281200", "display_phone": "(212) 228-1200"}
{"index": {"_index": "restaurants", "_id": "lIE4KHySIenwPbta1JuM8Q"}}
{"id": "lIE4KHySIenwPbta1JuM8Q", "name": "Mumbai Masala", "review_count": 273, "categories": [{"alias": "indpak", "title": "Indian"}], "rating": "4.5", "coordinates": {"latitude": 40.82695, "longitude": -73.94676}, "location": {"address1": "1768 Amsterdam Ave", "address2": "", "address3": null, "city": "New York", "zip_code": "10031", "country": "US", "state": "NY", "display_address": ["1768 Amsterdam Ave", "New York, NY 10031"]}, "phone": "+12123680100", "display_phone": "(212) 368-0100"}
{"index": {"_index": "restaurants", "_id": "zS4j95rR7PRdFdIfqD2Mmg"}}
{"id": "zS4j95rR7PRdFdIfqD2Mmg", "name": "Omar's Fine Cuisine", "review_count": 49, "categories": [{"alias": "halal", "title": "Halal"}, {"alias": "indpak", "title": "Indian"}, {"alias": "pizza", "title": "Pizza"}], "rating": "5", "coordinates": {"latitude": 40.67966, "longitude": -73.96834}, "location": {"address1": "568 Vanderbilt Ave", "address2": null, "address3": "", "city": "Brooklyn", "zip_code": "11238", "country": "US", "state": "NY", "display_address": ["568 Vanderbilt Ave", "Brooklyn, NY 11238"]}, "phone": "+17186180923", "display_phone": "(718) 618-0923"}
{"index": {"_index": "restaurants", "_id": "iXSuNKKUBIrBX7zUerlQDQ"}}
{"id": "iXSuNKKUBIrBX7zUerlQDQ", "name": "Benares", "review_count": 627, "categories": [{"alias": "indpak", "title": "Indian"}], "rating": "4", "coordinates": {"latitude": 40.71415, "longitude": -74.009209}, "location": {"address1": "45 Murray St", "address2": "", "address3": null, "city": "New York", "zip_code": "10007", "country": "US", "state": "NY", "display_address": ["45 Murray St", "New York, NY 10007"]}, "phone": "+12127664900", "display_phone": "(212) 766-4900"}
{"index": {"_index": "restaurants", "_id": "5UowQyu8tSljomOP-VL7NA"}}
{"id": "5UowQyu8tSljomOP-VL7NA", "name": "Tribhaanga", "review_count": 9, "categories": [{"alias": "indpak", "title": "Indian"}, {"alias": "asianfusion", "title": "Asian Fusion"}, {"alias": "himalayan", "title": "Himalayan/Nepalese"}], "rating": "5", "coordinates": {"latitude": 40.765496, "longitude": -73.982754}, "location": {"address1": "234 W 56th St", "address2": "Fl 1", "address3": "", "city": "New York", "zip_code": "10019", "country": "US", "state": "NY", "display_address": ["234 W 56th St", "Fl 1", "New York, NY 10019"]}, "phone": "+12125862403", "display_phone": "(212) 586-2403"}
{"index": {"_index": "restaurants", "_id": "jf3JRaxUYU93x8LFU-8gkA"}}
{"id": "jf3JRaxUYU93x8LFU-8gkA", "name": "GupShup", "review_count": 604, "categories": [{"alias": "indpak", "title": "Indian"}, {"alias": "cocktailbars", "title": "Cocktail Bars"}, {"alias": "breakfast_brunch", "title": "Breakfast & Brunch"}], "rating": "4", "coordinates": {"latitude": 40.7368323318866, "longitude": -73.9877132715179}, "location": {"address1": "115 E18th St", "address2": null, "address3": "", "city": "New York", "zip_code": "10003", "country": "US", "state": "NY", "display_address": ["115 E18th St", "New York, NY 10003"]}, "phone": "+12125187313", "display_phone": "(212) 518-7313"}
{"index": {"_index": "restaurants", "_id": "V2oWqXcoJkgGeIPOaS9eDA"}}
{"id": "V2oWqXcoJkgGeIPOaS9eDA", "name": "Masala Times Greenwich Village", "review_count": 572, "categories": [{"alias": "indpak", "title": "Indian"}, {"alias": "comfortfood", "title": "Comfort Food"}, {"alias": "halal", "title": "Halal"}], "rating": "4", "coordinates": {"latitude": 40.7292728223798, "longitude": -74.0015978515206}, "location": {"address1": "194 Bleecker St", "address2": "", "address3": "", "city": "New York", "zip_code": "10012", "country": "US", "state": "NY", "display_address": ["194 Bleecker St", "New York, NY 10012"]}, "phone": "+12129955100", "display_phone": "(212) 995-5100"}
{"index": {"_index": "restaurants", "_id": "Pv51B3SzP4OqUbJncEeF1g"}}
{"id": "Pv51B3SzP4OqUbJncEeF1g", "name": "Masala Grill", "review_count": 238, "categories": [{"alias": "indpak", "title": "Indian"}], "rating": "3.5", "coordinates": {"latitude": 40.68568, "longitude": -73.98116}, "location": {"address1": "501B Atlantic Ave", "address2": "", "address3": "", "city": "Brooklyn", "zip_code": "11217", "country": "US", "state": "NY", "display_address": ["501B Atlantic Ave", "Brooklyn, NY 11217"]}, "phone": "+17188759200", "display_phone": "(718) 875-9200"}
{"index": {"_index": "restaurants", "_id": "u1gdMF6vMCdwCilQ6vgyfw"}}
{"id": "u1gdMF6vMCdwCilQ6vgyfw", "name": "Honest", "review_count": 42, "categories": [{"alias": "indpak", "title": "Indian"}], "rating": "4.5", "coordinates": {"latitude": 40.72887, "longitude": -74.00082}, "location": {"address1": "176 Bleecker St", "address2": "", "address3": null, "city": "New York", "zip_code": "10012", "country": "US", "state": "NY", "display_address": ["176 Bleecker St", "New York, NY 10012"]}, "phone": "+19172612610", "display_phone": "(917) 261-2610"}
{"index": {"_index": "restaurants", "_id": "FvnExtQHPfz_crDCBTQ1iQ"}}
{"id": "FvnExtQHPfz_crDCBTQ1iQ", "name": "Mint Masala", "review_count": 343, "categories": [{"alias": "indpak", "title": "Indian"}, {"alias": "halal", "title": "Halal"}], "rating": "4", "coordinates": {"latitude": 40.729513, "longitude": -74.001138}, "location": {"address1": "95 Macdougal St", "address2": "", "address3": null, "city": "New York", "zip_code": "10012", "country": "US", "state": "NY", "display_address": ["95 Macdougal St", "New York, NY 10012"]}, "phone": "+12127772888", "display_phone": "(212) 777-2888"}
{"index": {"_index": "restaurants", "_id": "HEs6llkn3wIP1ATXeIZQew"}}
{"id": "HEs6llkn3wIP1ATXeIZQew", "name": "Pippali", "review_count": 860, "categories": [{"alias": "indpak", "title": "Indian"}], "rating": "4", "coordinates": {"latitude": 40.74233, "longitude": -73.98331}, "location": {"address1": "129 E 27th St", "address2": "", "address3": "", "city": "New York", "zip_code": "10016", "country": "US", "state": "NY", "display_address": ["129 E 27th St", "New York, NY 10016"]}, "phone": "+12126891999", "display_phone": "(212) 689-1999"}
{"index": {"_index": "restaurants", "_id": "GaxVczLK1qUuJHOP9VcFsQ"}}
{"id": "GaxVczLK1qUuJHOP9VcFsQ", "name": "Ananda", "review_count": 384, "categories": [{"alias": "indpak", "title": "Indian"}, {"alias": "vegetarian", "title": "Vegetarian"}, {"alias": "kosher", "title": "Kosher"}], "rating": "4", "coordinates": {"latitude": 40.728724, "longitude": -73.999147}, "location": {"address1": "210 Thompson St", "address2": null, "address3": "", "city": "New York", "zip_code": "10012", "country": "US", "state": "NY", "display_address": ["210 Thompson St", "New York, NY 10012"]}, "phone": "+12125337290", "display_phone": "(212) 533-7290"}
{"index": {"_index": "restaurants", "_id": "objNX6cuj1JyUijFjw21Qw"}}
{"id": "objNX6cuj1JyUijFjw21Qw", "name": "Bombay Bistro", "review_count": 255, "categories": [{"alias": "indpak", "title": "Indian"}, {"alias": "cocktailbars", "title": "Cocktail Bars"}], "rating": "4.5", "coordinates": {"latitude": 40.73136, "longitude": -74.00253}, "location": {"address1": "31 Cornelia St", "address2": "", "address3": null, "city": "New York", "zip_code": "10014", "country": "US", "state": "NY", "display_address": ["31 Cornelia St", "New York, NY 10014"]}, "phone": "+16468503719", "display_phone": "(646) 850-3719"}
{"index": {"_index": "restaurants", "_id": "qhXIW0LDT4XsoN2IE6dZHg"}}
{"id": "qhXIW0LDT4XsoN2IE6dZHg", "name": "Ahimsa", "review_count": 196, "categories": [{"alias": "indpak", "title": "Indian"}, {"alias": "vegetarian", "title": "Vegetarian"}, {"alias": "desserts", "title": "Desserts"}], "rating": "4.5", "coordinates": {"latitude": 40.7478959, "longitude": -73.9758638}, "location": {"address1": "204 E 38th St", "address2": "", "address3": null, "city": "New York", "zip_code": "10016", "country": "US", "state": "NY", "display_address": ["204 E 38th St", "New York, NY 10016"]}, "phone": "+12122282022", "display_phone": "(212) 228-2022"}
{"index": {"_index": "restaurants", "_id": "kS2CP48K66yL2TwIhUqy_A"}}
{"id": "kS2CP48K66yL2TwIhUqy_A", "name": "Tamarind", "review_count": 1095, "categories": [{"alias": "indpak", "title": "Indian"}], "rating": "4", "coordinates": {"latitude": 40.71909, "longitude": -74.00892}, "location": {"address1": "99 Hudson St", "address2": "", "address3": "", "city": "New York", "zip_code": "10013", "country": "US", "state": "NY", "display_address": ["99 Hudson St", "New York, NY 10013"]}, "phone": "+12127759000", "display_phone": "(212) 775-9000"}
{"index": {"_index": "restaurants", "_id": "IU6pOHR8Re8kvSn0mzhPHg"}}
{"id": "IU6pOHR8Re8kvSn0mzhPHg", "name": "Jaz Indian Cuisine", "review_count": 123, "categories": [{"alias": "indpak", "title": "Indian"}, {"alias": "seafood", "title": "Seafood"}, {"alias": "soup", "title": "Soup"}], "rating": "4.5", "coordinates": {"latitude": 40.7659, "longitude": -73.98741}, "location": {"address1": "813 Ninth Ave", "address2": "", "address3": null, "city": "New York", "zip_code": "10019", "country": "US", "state": "NY", "display_address": ["813 Ninth Ave", "New York, NY 10019"]}, "phone": "+19176757440", "display_phone": "(917) 675-7440"}
{"index": {"_index": "restaurants", "_id": "XKy4Cy4uNgO7rxhH4yFJQQ"}}
{"id": "XKy4Cy4uNgO7rxhH4yFJQQ", "name": "Mughlai Indian Cuisine", "review_count": 449, "categories": [{"alias": "indpak", "title": "Indian"}], "rating": "4", "coordinates": {"latitude": 40.739692, "longitude": -73.982116}, "location": {"address1": "329 3rd Ave", "address2": null, "address3": "", "city": "New York", "zip_code": "10010", "country": "US", "state": "NY", "display_address": ["329 3rd Ave", "New York, NY 10010"]}, "phone": "+12128890909", "display_phone": "(212) 889-0909"}
{"index": {"_index": "restaurants", "_id": "gPattIGuKxCgeNjxfEMDjg"}}
{"id": "gPattIGuKxCgeNjxfEMDjg", "name": "Punjabi Junction Of 87th", "review_count": 58, "categories": [{"alias": "sandwiches", "title": "Sandwiches"}, {"alias": "salad", "title": "Salad"}, {"alias": "indpak", "title": "Indian"}], "rating": "5", "coordinates": {"latitude": 40.777471, "longitude": -73.949159}, "location": {"address1": "1665 1st Ave", "address2": null, "address3": "", "city": "New York", "zip_code": "10028", "country": "US", "state": "NY", "display_address": ["1665 1st Ave", "New York, NY 10028"]}, "phone": "+17183742685", "display_phone": "(718) 374-2685"}
{"index": {"_index": "restaurants", "_id": "mZALre3ahuetu5X8_uUJew"}}
{"id": "mZALre3ahuetu5X8_uUJew", "name": "Thelewala", "review_count": 531, "categories": [{"alias": "indpak", "title": "Indian"}], "rating": "4", "coordinates": {"latitude": 40.72963, "longitude": -74.00068}, "location": {"address1": "112 Macdougal St", "address2": "", "address3": "", "city": "New York", "zip_code": "10012", "country": "US", "state": "NY", "display_address": ["112 Macdougal St", "New York, NY 10012"]}, "phone": "+12126149100", "display_phone": "(212) 614-9100"}
{"index": {"_index": "restaurants", "_id": "1_pK5aQ47atF50oAKHADhA"}}
{"id": "1_pK5aQ47atF50oAKHADhA", "name": "Indian Accent", "review_count": 696, "categories": [{"alias": "indpak", "title": "Indian"}], "rating": "4.5", "coordinates": {"latitude": 40.7643344624229, "longitude": -73.9787312885132}, "location": {"address1": "123 W 56th St", "address2": "", "address3": "", "city": "New York", "zip_code": "10019", "country": "US", "state": "NY", "display_address": ["123 W 56th St", "New York, NY 10019"]}, "phone": "+12128428070", "display_phone": "(212) 842-8070"}
{"index": {"_index": "restaurants", "_id": "axqp3pGJXnTLgq2QrPyDyQ"}}
{"id": "axqp3pGJXnTLgq2QrPyDyQ", "name": "Benemon", "review_count": 696, "categories": [{"alias": "japanese", "title": "Japanese"}, {"alias": "tapasmallplates", "title": "Tapas/Small Plates"}, {"alias": "cocktailbars", "title": "Cocktail Bars"}], "rating": "4.5", "coordinates": {"latitude": 40.72551, "longitude": -73.98838}, "location": {"address1": "108 E 4th St", "address2": null, "address3": "", "city": "New York", "zip_code": "10003", "country": "US", "state": "NY", "display_address": ["108 E 4th St", "New York, NY 10003"]}, "phone": "+12126143006", "display_phone": "(212) 614-3006"}
{"index": {"_index": "restaurants", "_id": "FlZ1zdVEKWv7dwqm8Uw8-w"}}
{"id": "FlZ1zdVEKWv7dwqm8Uw8-w", "name": "Raku", "review_count": 1475, "categories": [{"alias": "japanese", "title": "Japanese"}, {"alias": "noodles", "title": "Noodles"}], "rating": "4.5", "coordinates": {"latitude": 40.7264988089246, "longitude": -73.9866526052356}, "location": {"address1": "342 E 6th St", "address2": "", "address3": "", "city": "New York", "zip_code": "10003", "country": "US", "state": "NY", "display_address": ["342 E 6th St", "New York, NY 10003"]}, "phone": "+12122281324", "display_phone": "(212) 228-1324"}
{"index": {"_index": "restaurants", "_id": "j-r95E-S2GUyoR2b6MTqpA"}}
{"id": "j-r95E-S2GUyoR2b6MTqpA", "name": "Ozakaya", "review_count": 77, "categories": [{"alias": "izakaya", "title": "Izakaya"}, {"alias": "sushi", "title": "Sushi Bars"}], "rating": "4", "coordinates": {"latitude": 40.67807, "longitude": -73.96851}, "location": {"address1": "635 Vanderbilt Ave", "address2": null, "address3": "", "city": "Brooklyn", "zip_code": "11238", "country": "US", "state": "NY", "display_address": ["635 Vanderbilt Ave", "Brooklyn, NY 11238"]}, "phone": "+19294565956", "display_phone": "(929) 456-5956"}
{"index": {"_index": "restaurants", "_id": "BPZfuPvSxCfoppU4lPFm0Q"}}
{"id": "BPZfuPvSxCfoppU4lPFm0Q", "name": "DOMODOMO - New York", "review_count": 1525, "categories": [{"alias": "japanese", "title": "Japanese"}, {"alias": "sushi", "title": "Sushi Bars"}], "rating": "4", "coordinates": {"latitude": 40.7280299, "longitude": -74.00167}, "location": {"address1": "140 W Houston St", "address2": null, "address3": "", "city": "New York", "zip_code": "10012", "country": "US", "state": "NY", "display_address": ["140 W Houston St", "New York, NY 10012"]}, "phone": "+16467070301", "display_phone": "(646) 707-0301"}
{"index": {"_index": "restaurants", "_id": "_F29-1dkiBmDPSaKQ9_O0Q"}}
{"id": "_F29-1dkiBmDPSaKQ9_O0Q", "name": "Hakata Tonton", "review_count": 97, "categories": [{"alias": "japanese", "title": "Japanese"}], "rating": "4.5", "coordinates": {"latitude": 40.749981, "longitude": -73.985719}, "location": {"address1": "35 W 35th St", "address2": null, "address3": null, "city": "New York", "zip_code": "10001", "country": "US", "state": "NY", "display_address": ["35 W 35th St", "New York, NY 10001"]}, "phone": "+19172616536", "display_phone": "(917) 261-6536"}
{"index": {"_index": "restaurants", "_id": "Zz8FcsIrc5GpAUCdfdYGWw"}}
{"id": "Zz8FcsIrc5GpAUCdfdYGWw", "name": "MORU", "review_count": 20, "categories": [{"alias": "japanese", "title": "Japanese"}], "rating": "4.5", "coordinates": {"latitude": 40.85028, "longitude": -73.97033}, "location": {"address1": "1629 Schlosser St", "address2": null, "address3": "", "city": "Fort Lee", "zip_code": "07024", "country": "US", "state": "NJ", "display_address": ["1629 Schlosser St", "Fort Lee, NJ 07024"]}, "phone": "+12018495108", "display_phone": "(201) 849-5108"}
{"index": {"_index": "restaurants", "_id": "5ZgCfc1_fotAKUp7n3YJkQ"}}
{"id": "5ZgCfc1_fotAKUp7n3YJkQ", "name": "Towa", "review_count": 57, "categories": [{"alias": "japanese", "title": "Japanese"}, {"alias": "sushi", "title": "Sushi Bars"}, {"alias": "cocktailbars", "title": "Cocktail Bars"}], "rating": "4.5", "coordinates": {"latitude": 40.7442, "longitude": -73.99062}, "location": {"address1": "36 W 26th St", "address2": null, "address3": "", "city": "New York", "zip_code": "10010", "country": "US", "state": "NY", "display_address": ["36 W 26th St", "New York, NY 10010"]}, "phone": "+16463516258", "display_phone": "(646) 351-6258"}
{"index": {"_index": "restaurants", "_id": "eQ4QUGvuHGBzsOrphsVc6A"}}
{"id": "eQ4QUGvuHGBzsOrphsVc6A", "name": "Kimura", "review_count": 324, "categories": [{"alias": "japanese", "title": "Japanese"}, {"alias": "hotpot", "title": "Hot Pot"}, {"alias": "sushi", "title": "Sushi Bars"}], "rating": "4.5", "coordinates": {"latitude": 40.728995, "longitude": -73.988279}, "location": {"address1": "31 St Marks Pl", "address2": null, "address3": "", "city": "New York", "zip_code": "10003", "country": "US", "state": "NY", "display_address": ["31 St Marks Pl", "New York, NY 10003"]}, "phone": "+12125981188", "display_phone": "(212) 598-1188"}
{"index": {"_index": "restaurants", "_id": "zHsK9YUH3lv8VlQEAPw6gA"}}
{"id": "zHsK9YUH3lv8VlQEAPw6gA", "name": "Tabata", "review_count": 1, "categories": [{"alias": "japanese", "title": "Japanese"}, {"alias": "bars", "title": "Bars"}], "rating": "5", "coordinates": {"latitude": 40.770684, "longitude": -73.957302}, "location": {"address1": "1435 2nd Ave", "address2": null, "address3": "", "city": "New York", "zip_code": "10021", "country": "US", "state": "NY", "display_address": ["1435 2nd Ave", "New York, NY 10021"]}, "phone": "+16468337977", "display_phone": "(646) 833-7977"}
{"index": {"_index": "restaurants", "_id": "d5vREOMISnwoYEWlDpPAvw"}}
{"id": "d5vREOMISnwoYEWlDpPAvw", "name": "Mogmog", "review_count": 27, "categories": [{"alias": "seafoodmarkets", "title": "Seafood Markets"}, {"alias": "japanese", "title": "Japanese"}, {"alias": "grocery", "title": "Grocery"}], "rating": "5", "coordinates": {"latitude": 40.74234254828357, "longitude": -73.95525397259676}, "location": {"address1": "5-35 51st Ave", "address2": "", "address3": null, "city": "Long Island City", "zip_code": "11101", "country": "US", "state": "NY", "display_address": ["5-35 51st Ave", "Long Island City, NY 11101"]}, "phone": "+15163039183", "display_phone": "(516) 303-9183"}
{"index": {"_index": "restaurants", "_id": "v8y7NLCC25KY_lSbcs3UPA"}}
{"id": "v8y7NLCC25KY_lSbcs3UPA", "name": "Maison Kintaro", "review_count": 39, "categories": [{"alias": "japanese", "title": "Japanese"}], "rating": "4.5", "coordinates": {"latitude": 40.74746583338948, "longitude": -74.00104785354299}, "location": {"address1": "401 W 24th St", "address2": "", "address3": null, "city": "New York", "zip_code": "10011", "country": "US", "state": "NY", "display_address": ["401 W 24th St", "New York, NY 10011"]}, "phone": "+13152304533", "display_phone": "(315) 230-4533"}
{"index": {"_index": "restaurants", "_id": "kN3rkbjvqkY62CDRYUVz4g"}}
{"id": "kN3rkbjvqkY62CDRYUVz4g", "name": "Yopparai", "review_count": 259, "categories": [{"alias": "izakaya", "title": "Izakaya"}], "rating": "4.5", "coordinates": {"latitude": 40.71975013980203, "longitude": -73.98488557728082}, "location": {"address1": "49 Clinton St", "address2": "Ground Floor", "address3": "", "city": "New York", "zip_code": "10002", "country": "US", "state": "NY", "display_address": ["49 Clinton St", "Ground Floor", "New York, NY 10002"]}, "phone": "+12127777253", "display_phone": "(212) 777-7253"}
{"index": {"_index": "restaurants", "_id": "7OMGEtFWT6sdd9TVuoGqJQ"}}
{"id": "7OMGEtFWT6sdd9TVuoGqJQ", "name": "Okonomi", "review_count": 508, "categories": [{"alias": "japanese", "title": "Japanese"}, {"alias": "seafood", "title": "Seafood"}], "rating": "4.5", "coordinates": {"latitude": 40.712622, "longitude": -73.9487843}, "location": {"address1": "150 Ainslie St", "address2": "", "address3": "", "city": "Brooklyn", "zip_code": "11211", "country": "US", "state": "NY", "display_address": ["150 Ainslie St", "Brooklyn, NY 11211"]}, "phone": "+19292950480", "display_phone": "(929) 295-0480"}
{"index": {"_index": "restaurants", "_id": "diiUjS6uHvbQRoiWOGKXsA"}}
{"id": "diiUjS6uHvbQRoiWOGKXsA", "name": "Nami Nori", "review_count": 112, "categories": [{"alias": "sushi", "title": "Sushi Bars"}, {"alias": "japanese", "title": "Japanese"}, {"alias": "gluten_free", "title": "Gluten-Free"}], "rating": "4.5", "coordinates": {"latitude": 40.71913964537471, "longitude": -73.95284072719873}, "location": {"address1": "236 N 12th St", "address2": "", "address3": null, "city": "Brooklyn", "zip_code": "11211", "country": "US", "state": "NY", "display_address": ["236 N 12th St", "Brooklyn, NY 11211"]}, "phone": "+19179091299", "display_phone": "(917) 909-1299"}
{"index": {"_index": "restaurants", "_id": "9QK3vhI04Q8ylqk49C3JcQ"}}
{"id": "9QK3vhI04Q8ylqk49C3JcQ", "name": "Rule of Thirds", "review_count": 435, "categories": [{"alias": "japanese", "title": "Japanese"}, {"alias": "breakfast_brunch", "title": "Breakfast & Brunch"}, {"alias": "cocktailbars", "title": "Cocktail Bars"}], "rating": "4", "coordinates": {"latitude": 40.7246328, "longitude": -73.9551096}, "location": {"address1": "171 Banker St", "address2": null, "address3": null, "city": "Brooklyn", "zip_code": "11222", "country": "US", "state": "NY", "display_address": ["171 Banker St", "Brooklyn, NY 11222"]}, "phone": "+13473346684", "display_phone": "(347) 334-6684"}
{"index": {"_index": "restaurants", "_id": "Brs_MJhAXe60iMnlpeqkKA"}}
{"id": "Brs_MJhAXe60iMnlpeqkKA", "name": "Yakiniku West", "review_count": 754, "categories": [{"alias": "bbq", "title": "Barbeque"}, {"alias": "izakaya", "title": "Izakaya"}], "rating": "4", "coordinates": {"latitude": 40.72965099486931, "longitude": -73.98855901656697}, "location": {"address1": "218 E 9th St", "address2": "", "address3": "", "city": "New York", "zip_code": "10003", "country": "US", "state": "NY", "display_address": ["218 E 9th St", "New York, NY 10003"]}, "phone": "+16465968027", "display_phone": "(646) 596-8027"}
{"index": {"_index": "restaurants", "_id": "KrJ6m_TkxBAPPSNH-G7rvQ"}}
{"id": "KrJ6m_TkxBAPPSNH-G7rvQ", "name": "U-gu", "review_count": 179, "categories": [{"alias": "sushi", "title": "Sushi Bars"}, {"alias": "japanese", "title": "Japanese"}], "rating": "4.5", "coordinates": {"latitude": 40.69393, "longitude": -73.96284}, "location": {"address1": "541 Myrtle Ave", "address2": "Ste B", "address3": null, "city": "Brooklyn", "zip_code": "11205", "country": "US", "state": "NY", "display_address": ["541 Myrtle Ave", "Ste B", "Brooklyn, NY 11205"]}, "phone": "+17188570222", "display_phone": "(718) 857-0222"}
{"index": {"_index": "restaurants", "_id": "pqqhHTz_ZpApsaWGa_zMTA"}}
{"id": "pqqhHTz_ZpApsaWGa_zMTA", "name": "Douska", "review_count": 191, "categories": [{"alias": "sushi", "title": "Sushi Bars"}, {"alias": "japanese", "title": "Japanese"}], "rating": "4.5", "coordinates": {"latitude": 40.7191369, "longitude": -73.9908998}, "location": {"address1": "63 Delancey St", "address2": "", "address3": null, "city": "New York", "zip_code": "10002", "country": "US", "state": "NY", "display_address": ["63 Delancey St", "New York, NY 10002"]}, "phone": "+16466570908", "display_phone": "(646) 657-0908"}
{"index": {"_index": "restaurants", "_id": "Lz_9RXFKmOaSA4IpgV6NlA"}}
{"id": "Lz_9RXFKmOaSA4IpgV6NlA", "name": "Karazishi Botan", "review_count": 90, "categories": [{"alias": "ramen", "title": "Ramen"}], "rating": "4.5", "coordinates": {"latitude": 40.68312, "longitude": -73.99278}, "location": {"address1": "255 Smith St", "address2": "", "address3": null, "city": "Brooklyn", "zip_code": "11231", "country": "US", "state": "NY", "display_address": ["255 Smith St", "Brooklyn, NY 11231"]}, "phone": "+13477631155", "display_phone": "(347) 763-1155"}
{"index": {"_index": "restaurants", "_id": "pNe8ZCkGTe4cXfKdOF7kYQ"}}
{"id": "pNe8ZCkGTe4cXfKdOF7kYQ", "name": "Ise Restaurant", "review_count": 611, "categories": [{"alias": "japanese", "title": "Japanese"}, {"alias": "sushi", "title": "Sushi Bars"}], "rating": "4.5", "coordinates": {"latitude": 40.7291024, "longitude": -73.9900618}, "location": {"address1": "63 Cooper Sq", "address2": null, "address3": "", "city": "New York", "zip_code": "10003", "country": "US", "state": "NY", "display_address": ["63 Cooper Sq", "New York, NY 10003"]}, "phone": "+12122284152", "display_phone": "(212) 228-4152"}
{"index": {"_index": "restaurants", "_id": "kesYSgOJW5krU6L8n9qQ4Q"}}
{"id": "kesYSgOJW5krU6L8n9qQ4Q", "name": "Ichibantei", "review_count": 278, "categories": [{"alias": "japanese", "title": "Japanese"}, {"alias": "steak", "title": "Steakhouses"}], "rating": "4", "coordinates": {"latitude": 40.73063, "longitude": -73.98275}, "location": {"address1": "401 E 13th St", "address2": "", "address3": "", "city": "New York", "zip_code": "10009", "country": "US", "state": "NY", "display_address": ["401 E 13th St", "New York, NY 10009"]}, "phone": "+16463689755", "display_phone": "(646) 368-9755"}
{"index": {"_index": "restaurants", "_id": "qEe7nIhPfEL6L0-VYhWRrA"}}
{"id": "qEe7nIhPfEL6L0-VYhWRrA", "name": "Raku", "review_count": 809, "categories": [{"alias": "japanese", "title": "Japanese"}, {"alias": "noodles", "title": "Noodles"}], "rating": "4.5", "coordinates": {"latitude": 40.72728, "longitude": -74.00252}, "location": {"address1": "48 Macdougal St", "address2": null, "address3": "", "city": "New York", "zip_code": "10012", "country": "US", "state": "NY", "display_address": ["48 Macdougal St", "New York, NY 10012"]}, "phone": "+12129894797", "display_phone": "(212) 989-4797"}
{"index": {"_index": "restaurants", "_id": "nOyivdUQpQ0aNHD4lRVxSg"}}
{"id": "nOyivdUQpQ0aNHD4lRVxSg", "name": "Katsuya", "review_count": 81, "categories": [{"alias": "sushi", "title": "Sushi Bars"}, {"alias": "japanese", "title": "Japanese"}, {"alias": "fooddeliveryservices", "title": "Food Delivery Services"}], "rating": "4", "coordinates": {"latitude": 40.7536552, "longitude": -73.9996342}, "location": {"address1": "398 10th Ave", "address2": null, "address3": null, "city": "New York", "zip_code": "10001", "country": "US", "state": "NY", "display_address": ["398 10th Ave", "New York, NY 10001"]}, "phone": "+12129206816", "display_phone": "(212) 920-6816"}
{"index": {"_index": "restaurants", "_id": "lEH8EUPX3Zn_trHauIycYw"}}
{"id": "lEH8EUPX3Zn_trHauIycYw", "name": "Aoi Kitchen", "review_count": 205, "categories": [{"alias": "izakaya", "title": "Izakaya"}, {"alias": "japacurry", "title": "Japanese Curry"}], "rating": "4.5", "coordinates": {"latitude": 40.72683167, "longitude": -73.98754333}, "location": {"address1": "320 E 6th St", "address2": "", "address3": null, "city": "New York", "zip_code": "10003", "country": "US", "state": "NY", "display_address": ["320 E 6th St", "New York, NY 10003"]}, "phone": "+16464540084", "display_phone": "(646) 454-0084"}
{"index": {"_index": "restaurants", "_id": "klAhw3xLQi9GF1tf_HnS7w"}}
{"id": "klAhw3xLQi9GF1tf_HnS7w", "name": "Izakaya MEW", "review_count": 2730, "categories": [{"alias": "tapas", "title": "Tapas Bars"}, {"alias": "sushi", "title": "Sushi Bars"}, {"alias": "izakaya", "title": "Izakaya"}], "rating": "4.5", "coordinates": {"latitude": 40.750148, "longitude": -73.9863203465939}, "location": {"address1": "53 W 35th St", "address2": "", "address3": "", "city": "New York", "zip_code": "10001", "country": "US", "state": "NY", "display_address": ["53 W 35th St", "New York, NY 10001"]}, "phone": "+16463689384", "display_phone": "(646) 368-9384"}
{"index": {"_index": "restaurants", "_id": "PjjpgjY_sdawJU1JHbyNTQ"}}
{"id": "PjjpgjY_sdawJU1JHbyNTQ", "name": "Temakase", "review_count": 614, "categories": [{"alias": "sushi", "title": "Sushi Bars"}], "rating": "4.5", "coordinates": {"latitude": 40.729711, "longitude": -73.987127}, "location": {"address1": "157 Second Ave", "address2": null, "address3": "", "city": "New York", "zip_code": "10003", "country": "US", "state": "NY", "display_address": ["157 Second Ave", "New York, NY 10003"]}, "phone": "+12123811456", "display_phone": "(212) 381-1456"}
{"index": {"_index": "restaurants", "_id": "diz6_4TVSP6EdWEZCZ0Acg"}}
{"id": "diz6_4TVSP6EdWEZCZ0Acg", "name": "Kaoru", "review_count": 470, "categories": [{"alias": "japanese", "title": "Japanese"}], "rating": "4.5", "coordinates": {"latitude": 40.75202, "longitude": -73.96977}, "location": {"address1": "306 E 46th St", "address2": "", "address3": "", "city": "New York", "zip_code": "10017", "country": "US", "state": "NY", "display_address": ["306 E 46th St", "New York, NY 10017"]}, "phone": "+12128670874", "display_phone": "(212) 867-0874"}
{"index": {"_index": "restaurants", "_id": "J9UA6rzI5WW_cDGjwDnF5g"}}
{"id": "J9UA6rzI5WW_cDGjwDnF5g", "name": "Tsuru Ton Tan", "review_count": 2255, "categories": [{"alias": "japanese", "title": "Japanese"}, {"alias": "noodles", "title": "Noodles"}, {"alias": "sushi", "title": "Sushi Bars"}], "rating": "4", "coordinates": {"latitude": 40.73678, "longitude": -73.9910699}, "location": {"address1": "21 E 16th St", "address2": "", "address3": "", "city": "New York", "zip_code": "10003", "country": "US", "state": "NY", "display_address": ["21 E 16th St", "New York, NY 10003"]}, "phone": "+12129891000", "display_phone": "(212) 989-1000"}
{"index": {"_index": "restaurants", "_id": "GG72AwlaBM90YdLvRJliFg"}}
{"id": "GG72AwlaBM90YdLvRJliFg", "name": "Dashi Okume", "review_count": 8, "categories": [{"alias": "japanese", "title": "Japanese"}], "rating": "4.5", "coordinates": {"latitude": 40.724689465644175, "longitude": -73.9536510868506}, "location": {"address1": "50 Norman Ave", "address2": "", "address3": null, "city": "Brooklyn", "zip_code": "11222", "country": "US", "state": "NY", "display_address": ["50 Norman Ave", "Brooklyn, NY 11222"]}, "phone": "+16464342912", "display_phone": "(646) 434-2912"}
{"index": {"_index": "restaurants", "_id": "piN1qTj49J4RN-g7kNjpZg"}}
{"id": "piN1qTj49J4RN-g7kNjpZg", "name": "Kura Revolving Sushi Bar", "review_count": 551, "categories": [{"alias": "sushi", "title": "Sushi Bars"}, {"alias": "conveyorsushi", "title": "Conveyor Belt Sushi"}], "rating": "4", "coordinates": {"latitude": 40.85622, "longitude": -73.96783}, "location": {"address1": "2151 Lemoine Ave", "address2": "", "address3": null, "city": "Fort Lee", "zip_code": "07024", "country": "US", "state": "NJ", "display_address": ["2151 Lemoine Ave", "Fort Lee, NJ 07024"]}, "phone": "+19739396756", "display_phone": "(973) 939-6756"}
{"index": {"_index": "restaurants", "_id": "B8wHwGZCddRZ_T953FApxQ"}}
{"id": "B8wHwGZCddRZ_T953FApxQ", "name": "Maki Kosaka", "review_count": 97, "categories": [{"alias": "japanese", "title": "Japanese"}, {"alias": "sushi", "title": "Sushi Bars"}], "rating": "4.5", "coordinates": {"latitude": 40.740322, "longitude": -73.99379}, "location": {"address1": "55 W 19th St", "address2": "", "address3": null, "city": "New York", "zip_code": "10011", "country": "US", "state": "NY", "display_address": ["55 W 19th St", "New York, NY 10011"]}, "phone": "+19172615538", "display_phone": "(917) 261-5538"}
{"index": {"_index": "restaurants", "_id": "PheLrJdZdNrlI6owvy3MGA"}}
{"id": "PheLrJdZdNrlI6owvy3MGA", "name": "Koi Revolving Sushi Restaurant", "review_count": 1, "categories": [{"alias": "conveyorsushi", "title": "Conveyor Belt Sushi"}, {"alias": "sushi", "title": "Sushi Bars"}, {"alias": "seafood", "title": "Seafood"}], "rating": "5", "coordinates": {"latitude": 40.864137, "longitude": -73.82767}, "location": {"address1": "200 Baychester Ave", "address2": "Third Floor", "address3": "", "city": "New York", "zip_code": "10475", "country": "US", "state": "NY", "display_address": ["200 Baychester Ave", "Third Floor", "New York, NY 10475"]}, "phone": "+17183745952", "display_phone": "(718) 374-5952"}
{"index": {"_index": "restaurants", "_id": "YC-wGlO0oOkEIaCEDZv-ag"}}
{"id": "YC-wGlO0oOkEIaCEDZv-ag", "name": "Yakitori Totto", "review_count": 1424, "categories": [{"alias": "japanese", "title": "Japanese"}], "rating": "4", "coordinates": {"latitude": 40.765375, "longitude": -73.983114}, "location": {"address1": "251 W 55th St", "address2": "Fl 2", "address3": "", "city": "New York", "zip_code": "10019", "country": "US", "state": "NY", "display_address": ["251 W 55th St", "Fl 2", "New York, NY 10019"]}, "phone": "+12122454555", "display_phone": "(212) 245-4555"}
{"index": {"_index": "restaurants", "_id": "AudBWxeAr3zHr1ITrTcVpg"}}
{"id": "AudBWxeAr3zHr1ITrTcVpg", "name": "Izakaya Fuku", "review_count": 232, "categories": [{"alias": "japanese", "title": "Japanese"}], "rating": "4.5", "coordinates": {"latitude": 40.74635, "longitude": -73.89383}, "location": {"address1": "71-28 Roosevelt Ave", "address2": null, "address3": "", "city": "Jackson Heights", "zip_code": "11372", "country": "US", "state": "NY", "display_address": ["71-28 Roosevelt Ave", "Jackson Heights, NY 11372"]}, "phone": "+17182551120", "display_phone": "(718) 255-1120"}
{"index": {"_index": "restaurants", "_id": "1blUj3PW4tIPhZNhAlGgFw"}}
{"id": "1blUj3PW4tIPhZNhAlGgFw", "name": "Masaaki Modern Japanese Cuisine", "review_count": 47, "categories": [{"alias": "japanese", "title": "Japanese"}], "rating": "4.5", "coordinates": {"latitude": 40.7634963, "longitude": -73.7706441}, "location": {"address1": "214-16 41st Ave", "address2": null, "address3": "", "city": "Queens", "zip_code": "11361", "country": "US", "state": "NY", "display_address": ["214-16 41st Ave", "Queens, NY 11361"]}, "phone": "+17184235353", "display_phone": "(718) 423-5353"}
{"index": {"_index": "restaurants", "_id": "22uB5xk1aXPwRi9mc6bmOQ"}}
{"id": "22uB5xk1aXPwRi9mc6bmOQ", "name": "Ajisai on Duane", "review_count": 38, "categories": [{"alias": "japanese", "title": "Japanese"}, {"alias": "sushi", "title": "Sushi Bars"}, {"alias": "seafood", "title": "Seafood"}], "rating": "5", "coordinates": {"latitude": 40.71751, "longitude": -74.01021}, "location": {"address1": "183 Duane St", "address2": null, "address3": "", "city": "New York", "zip_code": "10013", "country": "US", "state": "NY", "display_address": ["183 Duane St", "New York, NY 10013"]}, "phone": "+16464227828", "display_phone": "(646) 422-7828"}
{"index": {"_index": "restaurants", "_id": "eyjeP9CJZ_gYgeJFP_vtpQ"}}
{"id": "eyjeP9CJZ_gYgeJFP_vtpQ", "name": "Karasu", "review_count": 111, "categories": [{"alias": "japanese", "title": "Japanese"}, {"alias": "cocktailbars", "title": "Cocktail Bars"}], "rating": "4", "coordinates": {"latitude": 40.68937279085807, "longitude": -73.9732461}, "location": {"address1": "166 Dekalb Ave", "address2": null, "address3": "Walter's", "city": "Brooklyn", "zip_code": "11217", "country": "US", "state": "NY", "display_address": ["166 Dekalb Ave", "Walter's", "Brooklyn, NY 11217"]}, "phone": "", "display_phone": ""}
{"index": {"_index": "restaurants", "_id": "W0YGwDTYRjUCBgtpqHXSAg"}}
{"id": "W0YGwDTYRjUCBgtpqHXSAg", "name": "IWak", "review_count": 39, "categories": [{"alias": "sushi", "title": "Sushi Bars"}], "rating": "5", "coordinates": {"latitude": 40.71244591155105, "longitude": -73.95622518519129}, "location": {"address1": "340 Grand St", "address2": null, "address3": "", "city": "Brooklyn", "zip_code": "11211", "country": "US", "state": "NY", "display_address": ["340 Grand St", "Brooklyn, NY 11211"]}, "phone": "+19299924925", "display_phone": "(929) 992-4925"}
{"index": {"_index": "restaurants", "_id": "CJaOSBUYSQAJy7p0QVkkrA"}}
{"id": "CJaOSBUYSQAJy7p0QVkkrA", "name": "Menya & Izakaya", "review_count": 71, "categories": [{"alias": "ramen", "title": "Ramen"}, {"alias": "noodles", "title": "Noodles"}], "rating": "4.5", "coordinates": {"latitude": 40.6712, "longitude": -73.98444}, "location": {"address1": "369 5th Ave", "address2": null, "address3": "", "city": "Brooklyn", "zip_code": "11215", "country": "US", "state": "NY", "display_address": ["369 5th Ave", "Brooklyn, NY 11215"]}, "phone": "+13473350629", "display_phone": "(347) 335-0629"}
{"index": {"_index": "restaurants", "_id": "VdAVjghEq_Zl-DDte0mjrw"}}
{"id": "VdAVjghEq_Zl-DDte0mjrw", "name": "ACRE", "review_count": 87, "categories": [{"alias": "breakfast_brunch", "title": "Breakfast & Brunch"}, {"alias": "japanese", "title": "Japanese"}, {"alias": "coffee", "title": "Coffee & Tea"}], "rating": "4.5", "coordinates": {"latitude": 40.72633, "longitude": -73.95471}, "location": {"address1": "64 Meserole Ave", "address2": null, "address3": "", "city": "Brooklyn", "zip_code": "11222", "country": "US", "state": "NY", "display_address": ["64 Meserole Ave", "Brooklyn, NY 11222"]}, "phone": "+17189549074", "display_phone": "(718) 954-9074"}
{"index": {"_index": "restaurants", "_id": "0Lnp_fi3gI2bfJ8RcMDfjg"}}
{"id": "0Lnp_fi3gI2bfJ8RcMDfjg", "name": "Gen", "review_count": 298, "categories": [{"alias": "japanese", "title": "Japanese"}, {"alias": "sushi", "title": "Sushi Bars"}], "rating": "4", "coordinates": {"latitude": 40.677639, "longitude": -73.963485}, "location": {"address1": "659 Washington Ave", "address2": "", "address3": "", "city": "Brooklyn", "zip_code": "11238", "country": "US", "state": "NY", "display_address": ["659 Washington Ave", "Brooklyn, NY 11238"]}, "phone": "+17183983550", "display_phone": "(718) 398-3550"}
{"index": {"_index": "restaurants", "_id": "i8ejDDR4COtukAAA1Ls5fw"}}
{"id": "i8ejDDR4COtukAAA1Ls5fw", "name": "Soba-ya", "review_count": 1541, "categories": [{"alias": "japanese", "title": "Japanese"}, {"alias": "noodles", "title": "Noodles"}], "rating": "4", "coordinates": {"latitude": 40.72965, "longitude": -73.9878899}, "location": {"address1": "229 E 9th St", "address2": "", "address3": "", "city": "New York", "zip_code": "10003", "country": "US", "state": "NY", "display_address": ["229 E 9th St", "New York, NY 10003"]}, "phone": "+12125336966", "display_phone": "(212) 533-6966"}
{"index": {"_index": "restaurants", "_id": "-J8VuX3wGrYSOBu2G0hMsw"}}
{"id": "-J8VuX3wGrYSOBu2G0hMsw", "name": "Katsu-Hama", "review_count": 1538, "categories": [{"alias": "japanese", "title": "Japanese"}], "rating": "4", "coordinates": {"latitude": 40.75638, "longitude": -73.97759}, "location": {"address1": "11 E 47th St", "address2": "", "address3": "", "city": "New York", "zip_code": "10017", "country": "US", "state": "NY", "display_address": ["11 E 47th St", "New York, NY 10017"]}, "phone": "+12127585909", "display_phone": "(212) 758-5909"}
{"index": {"_index": "restaurants", "_id": "1tee7X0yLzMmEYvyLLTSMw"}}
{"id": "1tee7X0yLzMmEYvyLLTSMw", "name": "Nikutei Futago", "review_count": 2, "categories": [{"alias": "japanese", "title": "Japanese"}], "rating": "5", "coordinates": {"latitude": 40.72256, "longitude": -74.00345}, "location": {"address1": "341 W Broadway", "address2": null, "address3": "", "city": "New York", "zip_code": "10013", "country": "US", "state": "NY", "display_address": ["341 W Broadway", "New York, NY 10013"]}, "phone": "", "display_phone": ""}
{"index": {"_index": "restaurants", "_id": "xuAtvWwGXfWGnxYK5hYvZg"}}
{"id": "xuAtvWwGXfWGnxYK5hYvZg", "name": "Kettl", "review_count": 34, "categories": [{"alias": "tea", "title": "Tea Rooms"}, {"alias": "japanese", "title": "Japanese"}, {"alias": "giftshops", "title": "Gift Shops"}], "rating": "4.5", "coordinates": {"latitude": 40.7296233, "longitude": -73.95814229999999}, "location": {"address1": "70 Greenpoint Ave", "address2": "", "address3": null, "city": "Brooklyn", "zip_code": "11222", "country": "US", "state": "NY", "display_address": ["70 Greenpoint Ave", "Brooklyn, NY 11222"]}, "phone": "+13477628142", "display_phone": "(347) 762-8142"}
{"index": {"_index": "restaurants", "_id": "xtxcAUvrD4dWHJd0cwvW1A"}}
{"id": "xtxcAUvrD4dWHJd0cwvW1A", "name": "JeJu Noodle Bar", "review_count": 883, "categories": [{"alias": "korean", "title": "Korean"}, {"alias": "noodles", "title": "Noodles"}, {"alias": "wine_bars", "title": "Wine Bars"}], "rating": "4.5", "coordinates": {"latitude": 40.73304, "longitude": -74.00734}, "location": {"address1": "679 Greenwich St", "address2": "", "address3": null, "city": "New York", "zip_code": "10014", "country": "US", "state": "NY", "display_address": ["679 Greenwich St", "New York, NY 10014"]}, "phone": "+16466660947", "display_phone": "(646) 666-0947"}
{"index": {"_index": "restaurants", "_id": "pGYovGGnxm0tMmkiQJPygA"}}
{"id": "pGYovGGnxm0tMmkiQJPygA", "name": "Ume Williamsburg", "review_count": 416, "categories": [{"alias": "sushi", "title": "Sushi Bars"}], "rating": "4", "coordinates": {"latitude": 40.71657, "longitude": -73.96559}, "location": {"address1": "237 Kent Ave", "address2": null, "address3": "", "city": "Brooklyn", "zip_code": "11249", "country": "US", "state": "NY", "display_address": ["237 Kent Ave", "Brooklyn, NY 11249"]}, "phone": "+19294203253", "display_phone": "(929) 420-3253"}
{"index": {"_index": "restaurants", "_id": "3paq_lNru7Dkdjg5q97UAw"}}
{"id": "3paq_lNru7Dkdjg5q97UAw", "name": "J\u2019s Kitchen New York", "review_count": 25, "categories": [{"alias": "japanese", "title": "Japanese"}], "rating": "5", "coordinates": {"latitude": 40.73230536889889, "longitude": -73.98224600204243}, "location": {"address1": "261 First Ave", "address2": "", "address3": null, "city": "New York", "zip_code": "10003", "country": "US", "state": "NY", "display_address": ["261 First Ave", "New York, NY 10003"]}, "phone": "+19172620434", "display_phone": "(917) 262-0434"}
{"index": {"_index": "restaurants", "_id": "itblJyiTY2h2ACidLk66oA"}}
{"id": "itblJyiTY2h2ACidLk66oA", "name": "Takahachi", "review_count": 604, "categories": [{"alias": "sushi", "title": "Sushi Bars"}, {"alias": "japanese", "title": "Japanese"}], "rating": "4", "coordinates": {"latitude": 40.725315, "longitude": -73.984436}, "location": {"address1": "85 Ave A", "address2": "", "address3": "", "city": "New York", "zip_code": "10009", "country": "US", "state": "NY", "display_address": ["85 Ave A", "New York, NY 10009"]}, "phone": "+12125056524", "display_phone": "(212) 505-6524"}
{"index": {"_index": "restaurants", "_id": "TbZ7mJqWuyJycLPNDrbY6A"}}
{"id": "TbZ7mJqWuyJycLPNDrbY6A", "name": "Ishi Omakase & Premium Sake", "review_count": 23, "categories": [{"alias": "japanese", "title": "Japanese"}, {"alias": "sushi", "title": "Sushi Bars"}], "rating": "5", "coordinates": {"latitude": 40.68099, "longitude": -73.97752}, "location": {"address1": "70 5th Ave", "address2": "", "address3": null, "city": "Brooklyn", "zip_code": "11217", "country": "US", "state": "NY", "display_address": ["70 5th Ave", "Brooklyn, NY 11217"]}, "phone": "+19179091935", "display_phone": "(917) 909-1935"}
{"index": {"_index": "restaurants", "_id": "6Ct7OeTRn4caY9g0swFBsw"}}
{"id": "6Ct7OeTRn4caY9g0swFBsw", "name": "La Contenta", "review_count": 886, "categories": [{"alias": "mexican", "title": "Mexican"}, {"alias": "bars", "title": "Bars"}, {"alias": "breakfast_brunch", "title": "Breakfast & Brunch"}], "rating": "4.5", "coordinates": {"latitude": 40.71873, "longitude": -73.98691}, "location": {"address1": "102 Norfolk St", "address2": "", "address3": "", "city": "New York", "zip_code": "10002", "country": "US", "state": "NY", "display_address": ["102 Norfolk St", "New York, NY 10002"]}, "phone": "+12124324180", "display_phone": "(212) 432-4180"}
{"index": {"_index": "restaurants", "_id": "Zk8UgB9MDoIHWFYgAxNlIQ"}}
{"id": "Zk8UgB9MDoIHWFYgAxNlIQ", "name": "De Mole", "review_count": 240, "categories": [{"alias": "mexican", "title": "Mexican"}, {"alias": "breakfast_brunch", "title": "Breakfast & Brunch"}, {"alias": "cocktailbars", "title": "Cocktail Bars"}], "rating": "4.5", "coordinates": {"latitude": 40.71377, "longitude": -73.95786}, "location": {"address1": "2 Hope St", "address2": "", "address3": null, "city": "Brooklyn", "zip_code": "11211", "country": "US", "state": "NY", "display_address": ["2 Hope St", "Brooklyn, NY 11211"]}, "phone": "+13477213399", "display_phone": "(347) 721-3399"}
{"index": {"_index": "restaurants", "_id": "9aJ1MVTthZw3QjqoG7mPjg"}}
{"id": "9aJ1MVTthZw3QjqoG7mPjg", "name": "Rosie's", "review_count": 881, "categories": [{"alias": "mexican", "title": "Mexican"}], "rating": "4", "coordinates": {"latitude": 40.72492, "longitude": -73.99079}, "location": {"address1": "29 E 2nd St", "address2": null, "address3": "", "city": "New York", "zip_code": "10003", "country": "US", "state": "NY", "display_address": ["29 E 2nd St", "New York, NY 10003"]}, "phone": "+12123350114", "display_phone": "(212) 335-0114"}
{"index": {"_index": "restaurants", "_id": "PqqnNrUtU7XTKQvUM4cyqQ"}}
{"id": "PqqnNrUtU7XTKQvUM4cyqQ", "name": "Bar Verde", "review_count": 413, "categories": [{"alias": "mexican", "title": "Mexican"}, {"alias": "vegan", "title": "Vegan"}, {"alias": "gluten_free", "title": "Gluten-Free"}], "rating": "4.5", "coordinates": {"latitude": 40.7260849061034, "longitude": -73.9897361397743}, "location": {"address1": "65 2nd Ave", "address2": "", "address3": null, "city": "New York", "zip_code": "10003", "country": "US", "state": "NY", "display_address": ["65 2nd Ave", "New York, NY 10003"]}, "phone": "+12127776965", "display_phone": "(212) 777-6965"}
{"index": {"_index": "restaurants", "_id": "RzKR9QcYP03EQ_8DxTxowg"}}
{"id": "RzKR9QcYP03EQ_8DxTxowg", "name": "Barrio Chino", "review_count": 1176, "categories": [{"alias": "mexican", "title": "Mexican"}, {"alias": "bars", "title": "Bars"}], "rating": "4", "coordinates": {"latitude": 40.718022, "longitude": -73.990026}, "location": {"address1": "253 Broome St", "address2": null, "address3": "", "city": "New York", "zip_code": "10002", "country": "US", "state": "NY", "display_address": ["253 Broome St", "New York, NY 10002"]}, "phone": "+12122286710", "display_phone": "(212) 228-6710"}
{"index": {"_index": "restaurants", "_id": "BbMUXd69i0tlWS2aoppwaQ"}}
{"id": "BbMUXd69i0tlWS2aoppwaQ", "name": "El Camion", "review_count": 758, "categories": [{"alias": "mexican", "title": "Mexican"}], "rating": "4", "coordinates": {"latitude": 40.7291, "longitude": -73.98105}, "location": {"address1": "194 Ave A", "address2": "", "address3": "", "city": "New York", "zip_code": "10009", "country": "US", "state": "NY", "display_address": ["194 Ave A", "New York, NY 10009"]}, "phone": "+12125335436", "display_phone": "(212) 533-5436"}
{"index": {"_index": "restaurants", "_id": "pjBDqn25X3The5AhZD3glw"}}
{"id": "pjBDqn25X3The5AhZD3glw", "name": "El Zason", "review_count": 52, "categories": [{"alias": "mexican", "title": "Mexican"}], "rating": "4.5", "coordinates": {"latitude": 40.6858552, "longitude": -73.98149149999999}, "location": {"address1": "491 Atlantic Ave", "address2": null, "address3": "", "city": "Brooklyn", "zip_code": "11217", "country": "US", "state": "NY", "display_address": ["491 Atlantic Ave", "Brooklyn, NY 11217"]}, "phone": "+17186832217", "display_phone": "(718) 683-2217"}
{"index": {"_index": "restaurants", "_id": "8CdQqXrmJEWRxZRgBQmsPQ"}}
{"id": "8CdQqXrmJEWRxZRgBQmsPQ", "name": "Don Jose Mexican Restaurant", "review_count": 18, "categories": [{"alias": "mexican", "title": "Mexican"}], "rating": "4.5", "coordinates": {"latitude": 40.97077453673179, "longitude": -73.83663567567305}, "location": {"address1": "2141 Central Park Ave", "address2": null, "address3": "", "city": "Yonkers", "zip_code": "10710", "country": "US", "state": "NY", "display_address": ["2141 Central Park Ave", "Yonkers, NY 10710"]}, "phone": "+19148811303", "display_phone": "(914) 881-1303"}
{"index": {"_index": "restaurants", "_id": "pG-IkylRFOb-HlaD8NwvvQ"}}
{"id": "pG-IkylRFOb-HlaD8NwvvQ", "name": "La Loteria", "review_count": 358, "categories": [{"alias": "mexican", "title": "Mexican"}], "rating": "4", "coordinates": {"latitude": 40.7307865530978, "longitude": -74.0041882564488}, "location": {"address1": "29 7th Ave S", "address2": "", "address3": "", "city": "New York", "zip_code": "10014", "country": "US", "state": "NY", "display_address": ["29 7th Ave S", "New York, NY 10014"]}, "phone": "+12128589096", "display_phone": "(212) 858-9096"}
{"index": {"_index": "restaurants", "_id": "hxJxybl8V752Uz9r50I41g"}}
{"id": "hxJxybl8V752Uz9r50I41g", "name": "Taqueria Al Pastor", "review_count": 70, "categories": [{"alias": "mexican", "title": "Mexican"}], "rating": "4.5", "coordinates": {"latitude": 40.69042, "longitude": -73.99176}, "location": {"address1": "119 Court St", "address2": "", "address3": null, "city": "Brooklyn", "zip_code": "11201", "country": "US", "state": "NY", "display_address": ["119 Court St", "Brooklyn, NY 11201"]}, "phone": "+13472944381", "display_phone": "(347) 294-4381"}
{"index": {"_index": "restaurants", "_id": "U6l20gH8YuOJMO8vF6_Ufw"}}
{"id": "U6l20gH8YuOJMO8vF6_Ufw", "name": "Jajaja Mexicana", "review_count": 50, "categories": [{"alias": "mexican", "title": "Mexican"}, {"alias": "bars", "title": "Bars"}], "rating": "4.5", "coordinates": {"latitude": 40.75264793272132, "longitude": -73.99981519174997}, "location": {"address1": "450 W 33rd St", "address2": null, "address3": "Whole Foods", "city": "New York", "zip_code": "10001", "country": "US", "state": "NY", "display_address": ["450 W 33rd St", "Whole Foods", "New York, NY 10001"]}, "phone": "+19177228419", "display_phone": "(917) 722-8419"}
{"index": {"_index": "restaurants", "_id": "7-aFmvscXWT223jlWrOkWg"}}
{"id": "7-aFmvscXWT223jlWrOkWg", "name": "Mictlan Mexico", "review_count": 33, "categories": [{"alias": "mexican", "title": "Mexican"}], "rating": "4.5", "coordinates": {"latitude": 40.71524, "longitude": -73.99183}, "location": {"address1": "17 Orchard St", "address2": "", "address3": null, "city": "New York", "zip_code": "10002", "country": "US", "state": "NY", "display_address": ["17 Orchard St", "New York, NY 10002"]}, "phone": "+19174095553", "display_phone": "(917) 409-5553"}
{"index": {"_index": "restaurants", "_id": "MwyEUg5EXuqTf1mjKU08ng"}}
{"id": "MwyEUg5EXuqTf1mjKU08ng", "name": "Xolo", "review_count": 23, "categories": [{"alias": "mexican", "title": "Mexican"}], "rating": "4.5", "coordinates": {"latitude": 40.71153, "longitude": -73.96761}, "location": {"address1": "29 Dunham Pl", "address2": "", "address3": null, "city": "Brooklyn", "zip_code": "11249", "country": "US", "state": "NY", "display_address": ["29 Dunham Pl", "Brooklyn, NY 11249"]}, "phone": "+19292980032", "display_phone": "(929) 298-0032"}
{"index": {"_index": "restaurants", "_id": "jnEv25Y2DosTq2sNnvmC9g"}}
{"id": "jnEv25Y2DosTq2sNnvmC9g", "name": "Los Tacos No.1", "review_count": 3688, "categories": [{"alias": "tacos", "title": "Tacos"}], "rating": "4.5", "coordinates": {"latitude": 40.7422546402357, "longitude": -74.0059581}, "location": {"address1": "75 9th Ave", "address2": "", "address3": "Chelsea Market", "city": "New York", "zip_code": "10011", "country": "US", "state": "NY", "display_address": ["75 9th Ave", "Chelsea Market", "New York, NY 10011"]}, "phone": "", "display_phone": ""}
{"index": {"_index": "restaurants", "_id": "vyKBwzRdNX4yiJDIFv37iw"}}
{"id": "vyKBwzRdNX4yiJDIFv37iw", "name": "Oxomoco", "review_count": 549, "categories": [{"alias": "mexican", "title": "Mexican"}], "rating": "4", "coordinates": {"latitude": 40.7299099, "longitude": -73.95548}, "location": {"address1": "128 Greenpoint Ave", "address2": "", "address3": null, "city": "Brooklyn", "zip_code": "11222", "country": "US", "state": "NY", "display_address": ["128 Greenpoint Ave", "Brooklyn, NY 11222"]}, "phone": "+16466884180", "display_phone": "(646) 688-4180"}
{"index": {"_index": "restaurants", "_id": "FeIQnJwhsNjyOIX_uhNYXg"}}
{"id": "FeIQnJwhsNjyOIX_uhNYXg", "name": "Ojal\u00e1 Authentic Mexican", "review_count": 98, "categories": [{"alias": "mexican", "title": "Mexican"}], "rating": "4.5", "coordinates": {"latitude": 40.683382, "longitude": -73.967279}, "location": {"address1": "852 Fulton St", "address2": null, "address3": "", "city": "Brooklyn", "zip_code": "11238", "country": "US", "state": "NY", "display_address": ["852 Fulton St", "Brooklyn, NY 11238"]}, "phone": "+17185003010", "display_phone": "(718) 500-3010"}
{"index": {"_index": "restaurants", "_id": "uVfOB37NyYEGRs5FITM-nQ"}}
{"id": "uVfOB37NyYEGRs5FITM-nQ", "name": "Leyenda", "review_count": 307, "categories": [{"alias": "latin", "title": "Latin American"}, {"alias": "mexican", "title": "Mexican"}, {"alias": "cocktailbars", "title": "Cocktail Bars"}], "rating": "4", "coordinates": {"latitude": 40.68431, "longitude": -73.99197}, "location": {"address1": "221 Smith St", "address2": "", "address3": "", "city": "Brooklyn", "zip_code": "11201", "country": "US", "state": "NY", "display_address": ["221 Smith St", "Brooklyn, NY 11201"]}, "phone": "+13479873260", "display_phone": "(347) 987-3260"}
{"index": {"_index": "restaurants", "_id": "4pj4ol7lXiytDD-BTKe3kg"}}
{"id": "4pj4ol7lXiytDD-BTKe3kg", "name": "Las Santas", "review_count": 303, "categories": [{"alias": "mexican", "title": "Mexican"}, {"alias": "cocktailbars", "title": "Cocktail Bars"}, {"alias": "breakfast_brunch", "title": "Breakfast & Brunch"}], "rating": "4", "coordinates": {"latitude": 40.6882, "longitude": -73.97953}, "location": {"address1": "572 Fulton St", "address2": null, "address3": "", "city": "Brooklyn", "zip_code": "11217", "country": "US", "state": "NY", "display_address": ["572 Fulton St", "Brooklyn, NY 11217"]}, "phone": "+17182225919", "display_phone": "(718) 222-5919"}
{"index": {"_index": "restaurants", "_id": "WZynqsGjqQLc_T8R80_-7g"}}
{"id": "WZynqsGjqQLc_T8R80_-7g", "name": "Yellow Rose", "review_count": 145, "categories": [{"alias": "tex-mex", "title": "Tex-Mex"}], "rating": "4.5", "coordinates": {"latitude": 40.732575, "longitude": -73.98806909999999}, "location": {"address1": "102 3rd Ave", "address2": "", "address3": null, "city": "New York", "zip_code": "10003", "country": "US", "state": "NY", "display_address": ["102 3rd Ave", "New York, NY 10003"]}, "phone": "+12125298880", "display_phone": "(212) 529-8880"}
{"index": {"_index": "restaurants", "_id": "tvqtAjAyc7dplVVwhw3VZQ"}}
{"id": "tvqtAjAyc7dplVVwhw3VZQ", "name": "La Contenta Oeste", "review_count": 307, "categories": [{"alias": "mexican", "title": "Mexican"}, {"alias": "breakfast_brunch", "title": "Breakfast & Brunch"}, {"alias": "cocktailbars", "title": "Cocktail Bars"}], "rating": "4", "coordinates": {"latitude": 40.7352, "longitude": -73.99808}, "location": {"address1": "78 W 11th St", "address2": null, "address3": "", "city": "New York", "zip_code": "10011", "country": "US", "state": "NY", "display_address": ["78 W 11th St", "New York, NY 10011"]}, "phone": "+12125332233", "display_phone": "(212) 533-2233"}
{"index": {"_index": "restaurants", "_id": "mpPZhqTzk2_Pz35gBQnbCw"}}
{"id": "mpPZhqTzk2_Pz35gBQnbCw", "name": "Santa Fe BK", "review_count": 70, "categories": [{"alias": "newmexican", "title": "New Mexican Cuisine"}], "rating": "4.5", "coordinates": {"latitude": 40.718101199815685, "longitude": -73.95677762208928}, "location": {"address1": "178 N 8th St", "address2": "", "address3": null, "city": "Brooklyn", "zip_code": "11211", "country": "US", "state": "NY", "display_address": ["178 N 8th St", "Brooklyn, NY 11211"]}, "phone": "+13477630279", "display_phone": "(347) 763-0279"}
{"index": {"_index": "restaurants", "_id": "Xjswj531-FkRZPpcccU6kQ"}}
{"id": "Xjswj531-FkRZPpcccU6kQ", "name": "Vida Verde", "review_count": 1492, "categories": [{"alias": "cocktailbars", "title": "Cocktail Bars"}, {"alias": "mexican", "title": "Mexican"}, {"alias": "venues", "title": "Venues & Event Spaces"}], "rating": "4.5", "coordinates": {"latitude": 40.7649503286729, "longitude": -73.9828372257363}, "location": {"address1": "248 W 55th St", "address2": "", "address3": null, "city": "New York", "zip_code": "10019", "country": "US", "state": "NY", "display_address": ["248 W 55th St", "New York, NY 10019"]}, "phone": "+16466570565", "display_phone": "(646) 657-0565"}
{"index": {"_index": "restaurants", "_id": "dYWjNK07igws9jFNgQmhng"}}
{"id": "dYWjNK07igws9jFNgQmhng", "name": "Rosa Mexicano", "review_count": 1648, "categories": [{"alias": "mexican", "title": "Mexican"}], "rating": "3.5", "coordinates": {"latitude": 40.738306632767085, "longitude": -73.99081456881349}, "location": {"address1": "9 E 18th St", "address2": "", "address3": "", "city": "New York", "zip_code": "10003", "country": "US", "state": "NY", "display_address": ["9 E 18th St", "New York, NY 10003"]}, "phone": "+12125333350", "display_phone": "(212) 533-3350"}
{"index": {"_index": "restaurants", "_id": "qjCl34rJ0zVUHaZ1irb8FA"}}
{"id": "qjCl34rJ0zVUHaZ1irb8FA", "name": "Taqueria Ramirez", "review_count": 103, "categories": [{"alias": "mexican", "title": "Mexican"}], "rating": "4.5", "coordinates": {"latitude": 40.727876136419724, "longitude": -73.95699203025863}, "location": {"address1": "94 Franklin St", "address2": "", "address3": null, "city": "Brooklyn", "zip_code": "11222", "country": "US", "state": "NY", "display_address": ["94 Franklin St", "Brooklyn, NY 11222"]}, "phone": "", "display_phone": ""}
{"index": {"_index": "restaurants", "_id": "9_CEU7Wmvmwlyvqr-PJD6w"}}
{"id": "9_CEU7Wmvmwlyvqr-PJD6w", "name": "Ofrenda", "review_count": 1074, "categories": [{"alias": "mexican", "title": "Mexican"}, {"alias": "breakfast_brunch", "title": "Breakfast & Brunch"}], "rating": "4", "coordinates": {"latitude": 40.73391, "longitude": -74.00242}, "location": {"address1": "113 7th Ave S", "address2": "", "address3": "", "city": "New York", "zip_code": "10014", "country": "US", "state": "NY", "display_address": ["113 7th Ave S", "New York, NY 10014"]}, "phone": "+12129242305", "display_phone": "(212) 924-2305"}
{"index": {"_index": "restaurants", "_id": "clTandR9fDd4OaREI8qTsQ"}}
{"id": "clTandR9fDd4OaREI8qTsQ", "name": "El Tepeyac Taqueria", "review_count": 3, "categories": [{"alias": "mexican", "title": "Mexican"}], "rating": "5", "coordinates": {"latitude": 40.78665, "longitude": -73.95019}, "location": {"address1": "1505 Lexington Ave", "address2": null, "address3": "", "city": "New York", "zip_code": "10029", "country": "US", "state": "NY", "display_address": ["1505 Lexington Ave", "New York, NY 10029"]}, "phone": "+12127222020", "display_phone": "(212) 722-2020"}
{"index": {"_index": "restaurants", "_id": "zASGm-RyRNTY2xQir2nV_w"}}
{"id": "zASGm-RyRNTY2xQir2nV_w", "name": "Jajaja Mexicana", "review_count": 94, "categories": [{"alias": "mexican", "title": "Mexican"}, {"alias": "vegan", "title": "Vegan"}, {"alias": "cocktailbars", "title": "Cocktail Bars"}], "rating": "4.5", "coordinates": {"latitude": 40.720138288951354, "longitude": -73.96157921170422}, "location": {"address1": "119 Kent Ave", "address2": "", "address3": null, "city": "Brooklyn", "zip_code": "11249", "country": "US", "state": "NY", "display_address": ["119 Kent Ave", "Brooklyn, NY 11249"]}, "phone": "+18604792872", "display_phone": "(860) 479-2872"}
{"index": {"_index": "restaurants", "_id": "d7YbQzGlmawMGAzUHzZvuw"}}
{"id": "d7YbQzGlmawMGAzUHzZvuw", "name": "Tacombi", "review_count": 1201, "categories": [{"alias": "mexican", "title": "Mexican"}], "rating": "4", "coordinates": {"latitude": 40.72402294103019, "longitude": -73.99386129999999}, "location": {"address1": "267 Elizabeth St", "address2": "", "address3": "", "city": "New York", "zip_code": "10012", "country": "US", "state": "NY", "display_address": ["267 Elizabeth St", "New York, NY 10012"]}, "phone": "+19177270179", "display_phone": "(917) 727-0179"}
{"index": {"_index": "restaurants", "_id": "y2dSu-qwp1BmLfQRn_c-1Q"}}
{"id": "y2dSu-qwp1BmLfQRn_c-1Q", "name": "Bar Lula", "review_count": 45, "categories": [{"alias": "cocktailbars", "title": "Cocktail Bars"}, {"alias": "french", "title": "French"}, {"alias": "mexican", "title": "Mexican"}], "rating": "4.5", "coordinates": {"latitude": 40.72743, "longitude": -73.98521}, "location": {"address1": "132 1st Ave", "address2": null, "address3": "", "city": "New York", "zip_code": "10009", "country": "US", "state": "NY", "display_address": ["132 1st Ave", "New York, NY 10009"]}, "phone": "+12127277900", "display_phone": "(212) 727-7900"}
{"index": {"_index": "restaurants", "_id": "Wx6lMnEh7dCmX-9PQF1Ifw"}}
{"id": "Wx6lMnEh7dCmX-9PQF1Ifw", "name": "Toloache 50", "review_count": 2220, "categories": [{"alias": "mexican", "title": "Mexican"}], "rating": "4", "coordinates": {"latitude": 40.762227, "longitude": -73.9856178382696}, "location": {"address1": "251 West 50th St", "address2": "", "address3": "", "city": "New York", "zip_code": "10012", "country": "US", "state": "NY", "display_address": ["251 West 50th St", "New York, NY 10012"]}, "phone": "+12125811818", "display_phone": "(212) 581-1818"}
{"index": {"_index": "restaurants", "_id": "IfIyjm4SfORGYPbaAWST3g"}}
{"id": "IfIyjm4SfORGYPbaAWST3g", "name": "MEXiCUE", "review_count": 655, "categories": [{"alias": "mexican", "title": "Mexican"}], "rating": "4", "coordinates": {"latitude": 40.743617, "longitude": -73.987867}, "location": {"address1": "225 5th Ave", "address2": "", "address3": "", "city": "New York", "zip_code": "10010", "country": "US", "state": "NY", "display_address": ["225 5th Ave", "New York, NY 10010"]}, "phone": "+13322633200", "display_phone": "(332) 263-3200"}
{"index": {"_index": "restaurants", "_id": "FavssEgZjXFi2unEXePkVQ"}}
{"id": "FavssEgZjXFi2unEXePkVQ", "name": "Tacombi", "review_count": 468, "categories": [{"alias": "juicebars", "title": "Juice Bars & Smoothies"}, {"alias": "tacos", "title": "Tacos"}], "rating": "4", "coordinates": {"latitude": 40.73112, "longitude": -74.00272}, "location": {"address1": "255 Bleecker St", "address2": "", "address3": "", "city": "New York", "zip_code": "10014", "country": "US", "state": "NY", "display_address": ["255 Bleecker St", "New York, NY 10014"]}, "phone": "+16469645984", "display_phone": "(646) 964-5984"}
{"index": {"_index": "restaurants", "_id": "zwWksgd8M4-g7RBmVudYTg"}}
{"id": "zwWksgd8M4-g7RBmVudYTg", "name": "Aldama", "review_count": 70, "categories": [{"alias": "mexican", "title": "Mexican"}, {"alias": "cocktailbars", "title": "Cocktail Bars"}], "rating": "4", "coordinates": {"latitude": 40.710999707909046, "longitude": -73.96489653736353}, "location": {"address1": "91 S 6th St", "address2": "", "address3": null, "city": "Brooklyn", "zip_code": "11249", "country": "US", "state": "NY", "display_address": ["91 S 6th St", "Brooklyn, NY 11249"]}, "phone": "+19292980233", "display_phone": "(929) 298-0233"}
{"index": {"_index": "restaurants", "_id": "2kkjzgLwKHFmLAfR86kE3Q"}}
{"id": "2kkjzgLwKHFmLAfR86kE3Q", "name": "Fonda Tribeca", "review_count": 27, "categories": [{"alias": "mexican", "title": "Mexican"}, {"alias": "breakfast_brunch", "title": "Breakfast & Brunch"}, {"alias": "catering", "title": "Caterers"}], "rating": "4.5", "coordinates": {"latitude": 40.71645, "longitude": -74.00783}, "location": {"address1": "139 Duane St", "address2": "", "address3": null, "city": "New York", "zip_code": "10013", "country": "US", "state": "NY", "display_address": ["139 Duane St", "New York, NY 10013"]}, "phone": "+19172616950", "display_phone": "(917) 261-6950"}
{"index": {"_index": "restaurants", "_id": "MfbVI5reXLIIs8Cc2HwgQw"}}
{"id": "MfbVI5reXLIIs8Cc2HwgQw", "name": "Breakroom", "review_count": 1680, "categories": [{"alias": "burgers", "title": "Burgers"}, {"alias": "tacos", "title": "Tacos"}, {"alias": "hotdog", "title": "Hot Dogs"}], "rating": "4.5", "coordinates": {"latitude": 40.7166907225542, "longitude": -73.9999440120647}, "location": {"address1": "83 Baxter St", "address2": "", "address3": "", "city": "New York", "zip_code": "10013", "country": "US", "state": "NY", "display_address": ["83 Baxter St", "New York, NY 10013"]}, "phone": "+12122272802", "display_phone": "(212) 227-2802"}
{"index": {"_index": "restaurants", "_id": "DQuwci5xgJxXx7dxxp9FBA"}}
{"id": "DQuwci5xgJxXx7dxxp9FBA", "name": "Taqueria St. Marks Place", "review_count": 471, "categories": [{"alias": "mexican", "title": "Mexican"}], "rating": "4", "coordinates": {"latitude": 40.72788723475379, "longitude": -73.98557625767012}, "location": {"address1": "79 St Marks Pl", "address2": "", "address3": "", "city": "New York", "zip_code": "10003", "country": "US", "state": "NY", "display_address": ["79 St Marks Pl", "New York, NY 10003"]}, "phone": "+16469645614", "display_phone": "(646) 964-5614"}
{"index": {"_index": "restaurants", "_id": "1ux5rxwWjKxoXHUyGynwSg"}}
{"id": "1ux5rxwWjKxoXHUyGynwSg", "name": "Purepecha", "review_count": 84, "categories": [{"alias": "mexican", "title": "Mexican"}], "rating": "4.5", "coordinates": {"latitude": 40.68454335716857, "longitude": -73.99182679347962}, "location": {"address1": "213 Smith St", "address2": "", "address3": null, "city": "Brooklyn", "zip_code": "11201", "country": "US", "state": "NY", "display_address": ["213 Smith St", "Brooklyn, NY 11201"]}, "phone": "+13479161227", "display_phone": "(347) 916-1227"}
{"index": {"_index": "restaurants", "_id": "L3REPLCvQpMapYPd_fkS-A"}}
{"id": "L3REPLCvQpMapYPd_fkS-A", "name": "Los Mariscos", "review_count": 750, "categories": [{"alias": "mexican", "title": "Mexican"}, {"alias": "cocktailbars", "title": "Cocktail Bars"}], "rating": "4.5", "coordinates": {"latitude": 40.74207, "longitude": -74.00565}, "location": {"address1": "409 W 15th St", "address2": "", "address3": null, "city": "New York", "zip_code": "10011", "country": "US", "state": "NY", "display_address": ["409 W 15th St", "New York, NY 10011"]}, "phone": "+12129204986", "display_phone": "(212) 920-4986"}
{"index": {"_index": "restaurants", "_id": "Ck09FempamAKGSPsV_bX-A"}}
{"id": "Ck09FempamAKGSPsV_bX-A", "name": "Xixa", "review_count": 664, "categories": [{"alias": "mexican", "title": "Mexican"}, {"alias": "tapasmallplates", "title": "Tapas/Small Plates"}, {"alias": "cocktailbars", "title": "Cocktail Bars"}], "rating": "4.5", "coordinates": {"latitude": 40.7104, "longitude": -73.95854}, "location": {"address1": "241 S 4th St", "address2": "", "address3": "", "city": "Brooklyn", "zip_code": "11211", "country": "US", "state": "NY", "display_address": ["241 S 4th St", "Brooklyn, NY 11211"]}, "phone": "+17183888860", "display_phone": "(718) 388-8860"}
{"index": {"_index": "restaurants", "_id": "NOh24SMS6k4pzNv8Ds7KDg"}}
{"id": "NOh24SMS6k4pzNv8Ds7KDg", "name": "Cafe Habana", "review_count": 3289, "categories": [{"alias": "cuban", "title": "Cuban"}, {"alias": "mexican", "title": "Mexican"}], "rating": "4", "coordinates": {"latitude": 40.722998, "longitude": -73.994171}, "location": {"address1": "17 Prince St", "address2": "", "address3": "", "city": "New York", "zip_code": "10012", "country": "US", "state": "NY", "display_address": ["17 Prince St", "New York, NY 10012"]}, "phone": "+12126252001", "display_phone": "(212) 625-2001"}
{"index": {"_index": "restaurants", "_id": "SXWnyFNLCehVlJPRxk7gAg"}}
{"id": "SXWnyFNLCehVlJPRxk7gAg", "name": "Anejo Tribeca", "review_count": 637, "categories": [{"alias": "mexican", "title": "Mexican"}, {"alias": "tapasmallplates", "title": "Tapas/Small Plates"}, {"alias": "tapas", "title": "Tapas Bars"}], "rating": "4", "coordinates": {"latitude": 40.71931499731559, "longitude": -74.00427174111186}, "location": {"address1": "301 Church St", "address2": "", "address3": "", "city": "New York", "zip_code": "10013", "country": "US", "state": "NY", "display_address": ["301 Church St", "New York, NY 10013"]}, "phone": "+12129206270", "display_phone": "(212) 920-6270"}
{"index": {"_index": "restaurants", "_id": "l0ZOGV9tohkpfHiZ-3XSRg"}}
{"id": "l0ZOGV9tohkpfHiZ-3XSRg", "name": "Friducha", "review_count": 133, "categories": [{"alias": "mexican", "title": "Mexican"}, {"alias": "bars", "title": "Bars"}], "rating": "4", "coordinates": {"latitude": 40.73152, "longitude": -73.95432}, "location": {"address1": "946 Manhattan Ave", "address2": "", "address3": null, "city": "Brooklyn", "zip_code": "11222", "country": "US", "state": "NY", "display_address": ["946 Manhattan Ave", "Brooklyn, NY 11222"]}, "phone": "+17183830026", "display_phone": "(718) 383-0026"}
{"index": {"_index": "restaurants", "_id": "DFRpXRHjOHBxYHiuvwaEQQ"}}
{"id": "DFRpXRHjOHBxYHiuvwaEQQ", "name": "Rosa Mexicano", "review_count": 1460, "categories": [{"alias": "mexican", "title": "Mexican"}], "rating": "3.5", "coordinates": {"latitude": 40.77115637915222, "longitude": -73.9831131}, "location": {"address1": "61 Columbus Ave", "address2": "", "address3": "", "city": "New York", "zip_code": "10023", "country": "US", "state": "NY", "display_address": ["61 Columbus Ave", "New York, NY 10023"]}, "phone": "+12129777700", "display_phone": "(212) 977-7700"}
{"index": {"_index": "restaurants", "_id": "j9a6xr78a6tPBblKvvBJew"}}
{"id": "j9a6xr78a6tPBblKvvBJew", "name": "The Cactus Shop", "review_count": 41, "categories": [{"alias": "cocktailbars", "title": "Cocktail Bars"}, {"alias": "gardening", "title": "Nurseries & Gardening"}, {"alias": "mexican", "title": "Mexican"}], "rating": "4", "coordinates": {"latitude": 40.71672, "longitude": -73.96543}, "location": {"address1": "231 Kent Ave", "address2": "", "address3": null, "city": "Brooklyn", "zip_code": "11249", "country": "US", "state": "NY", "display_address": ["231 Kent Ave", "Brooklyn, NY 11249"]}, "phone": "+13477498474", "display_phone": "(347) 749-8474"}
{"index": {"_index": "restaurants", "_id": "J9pgjC191T-odCmTAG-grQ"}}
{"id": "J9pgjC191T-odCmTAG-grQ", "name": "El Diablito Taqueria", "review_count": 425, "categories": [{"alias": "mexican", "title": "Mexican"}], "rating": "4", "coordinates": {"latitude": 40.72504, "longitude": -73.98917}, "location": {"address1": "60 E 3rd St", "address2": null, "address3": "", "city": "New York", "zip_code": "10003", "country": "US", "state": "NY", "display_address": ["60 E 3rd St", "New York, NY 10003"]}, "phone": "+16466929268", "display_phone": "(646) 692-9268"}
{"index": {"_index": "restaurants", "_id": "tcAUSOnV9ZWR0y-Tv25h_w"}}
{"id": "tcAUSOnV9ZWR0y-Tv25h_w", "name": "Raiz Modern Mexican ", "review_count": 67, "categories": [{"alias": "vegan", "title": "Vegan"}, {"alias": "tacos", "title": "Tacos"}], "rating": "5", "coordinates": {"latitude": 40.72708, "longitude": -73.98546}, "location": {"address1": "120 1st Ave", "address2": null, "address3": "", "city": "New York", "zip_code": "10009", "country": "US", "state": "NY", "display_address": ["120 1st Ave", "New York, NY 10009"]}, "phone": "+16468632233", "display_phone": "(646) 863-2233"}
{"index": {"_index": "restaurants", "_id": "w1TO4XzCVh-wESRRGQiiRw"}}
{"id": "w1TO4XzCVh-wESRRGQiiRw", "name": "Martha's Cocina Mexicana", "review_count": 24, "categories": [{"alias": "mexican", "title": "Mexican"}], "rating": "4.5", "coordinates": {"latitude": 40.68753, "longitude": -73.95709}, "location": {"address1": "338 Franklin Ave", "address2": null, "address3": "", "city": "Brooklyn", "zip_code": "11238", "country": "US", "state": "NY", "display_address": ["338 Franklin Ave", "Brooklyn, NY 11238"]}, "phone": "+13472405049", "display_phone": "(347) 240-5049"}
{"index": {"_index": "restaurants", "_id": "GxJE8l4cdp5qle4KhZ-M4w"}}
{"id": "GxJE8l4cdp5qle4KhZ-M4w", "name": "Rosarito", "review_count": 7, "categories": [{"alias": "mexican", "title": "Mexican"}], "rating": "3.5", "coordinates": {"latitude": 41.22967422183401, "longitude": -73.90896409999999}, "location": {"address1": "2016 Albany Post Rd", "address2": "", "address3": null, "city": "Croton-on-Hudson", "zip_code": "10520", "country": "US", "state": "NY", "display_address": ["2016 Albany Post Rd", "Croton-on-Hudson, NY 10520"]}, "phone": "", "display_phone": ""}
{"index": {"_index": "restaurants", "_id": "nrwOQSXoRXfAYhkdjiUk8g"}}
{"id": "nrwOQSXoRXfAYhkdjiUk8g", "name": "Toro Loco", "review_count": 426, "categories": [{"alias": "cocktailbars", "title": "Cocktail Bars"}, {"alias": "mexican", "title": "Mexican"}, {"alias": "breakfast_brunch", "title": "Breakfast & Brunch"}], "rating": "4", "coordinates": {"latitude": 40.70421, "longitude": -74.01208}, "location": {"address1": "15 Stone St", "address2": null, "address3": "", "city": "New York", "zip_code": "10004", "country": "US", "state": "NY", "display_address": ["15 Stone St", "New York, NY 10004"]}, "phone": "+19172620444", "display_phone": "(917) 262-0444"}
{"index": {"_index": "restaurants", "_id": "xGoSAOhQBNdJMJmPn7CMDQ"}}
{"id": "xGoSAOhQBNdJMJmPn7CMDQ", "name": "MEXiCUE", "review_count": 661, "categories": [{"alias": "mexican", "title": "Mexican"}], "rating": "4", "coordinates": {"latitude": 40.754109, "longitude": -73.986015}, "location": {"address1": "1440 Broadway", "address2": null, "address3": "", "city": "New York", "zip_code": "10018", "country": "US", "state": "NY", "display_address": ["1440 Broadway", "New York, NY 10018"]}, "phone": "+13322498600", "display_phone": "(332) 249-8600"}
